     3.03           Observation Data    M                   RINEX VERSION / TYPE
MicDrop             IKOS                20260504 172657 UTC PGM / RUN BY / DATE 
                                                            COMMENT             
                                                            MARKER NAME         
GROUND_CRAFT                                                MARKER TYPE         
CH-01               IKOS                                    OBSERVER / AGENCY   
UBX-F9P             GROUND_CRAFT        0.0.1               REC # / TYPE / VERS 
Unknown             Unknown                                 ANT # / TYPE        
        0.0000        0.0000        0.0000                  ANTENNA: DELTA H/E/N
G    4 C1C L1C D1C S1C                                      SYS / # / OBS TYPES 
R    4 C1C L1C D1C S1C                                      SYS / # / OBS TYPES 
E    4 C1C L1C D1C S1C                                      SYS / # / OBS TYPES 
C    4 C2I L2I D2I S2I                                      SYS / # / OBS TYPES 
J    4 C1C L1C D1C S1C                                      SYS / # / OBS TYPES 
DBHZ                                                        SIGNAL STRENGTH UNIT
  2026    05    04    17    29   59.9950000     GPS         TIME OF FIRST OBS
G L1C                                                       SYS / PHASE SHIFT   
R L1C                                                       SYS / PHASE SHIFT   
E L1C                                                       SYS / PHASE SHIFT   
C L2I                                                       SYS / PHASE SHIFT   
J L1C                                                       SYS / PHASE SHIFT   
  9 R01  1 R24  2 R23  3 R16 -1 R08  6 R07  5 R09 -2 R17  4 GLONASS SLOT / FRQ #
    R02 -4                                                  GLONASS SLOT / FRQ #
                                                            GLONASS COD/PHS/BIS 
                                                            END OF HEADER
> 2026 05 04 17 29 59.9950000  0 30                                             
G17  22151079.751   116404757.050       -3138.773          28.000               
G04  18903716.566    99339684.144        -668.826          40.000               
E11  23507250.790   123531415.505       -2853.695          32.000               
G01  22901337.501   120347322.445       -3771.501          26.000               
C20  21398341.862   111426783.256       -2069.182          41.000               
C29  22749255.242   118461325.523       -3373.351          32.000               
C10  38410940.086   200015844.487         -14.649          34.000               
C23  25002142.121   130192660.688        -574.683          30.000               
C12  20027525.928   104288588.307       -1049.266          35.000               
C35  21045289.929   109588356.529        -792.484          38.000               
R24  18366631.883    98214625.278        1478.446          40.000               
R01  18665772.827    99779253.442        2087.675          37.000               
G03  20357380.199   106978754.678       -2741.004          37.000               
E04  24889344.821   130794389.476       -2648.432          18.000               
G31  22101051.533   116141814.393       -1928.062          33.000               
G19  20370526.732   107047834.842       -2141.942          42.000               
G09  18869766.032    99161284.668        1588.778          42.000               
C19  20432387.591   106396809.811         534.044          38.000               
C11  24727990.005   128765132.529       -3644.690          20.000               
C07  38284583.600   199357863.619        -484.174          28.000               
C31  22552359.844   117436011.698        1951.906          34.000               
E09  22042422.617   115833705.377        -364.928          38.000               
G06  19561484.015   102796292.529        1366.212          42.000               
G11  22384131.416   117629385.751        3249.518          32.000               
E05  23354098.899   122726604.226        2294.944          38.000               
C22  23258088.343   121110974.035        2693.092          32.000               
E34  23020698.573   120974573.834        1734.477          33.000               
E36  22050358.209   115875443.515        -977.713          37.000               
E06  23035259.649   121051122.767       -1691.793          37.000               
E14  17122897.836    89981433.062       -2127.074          28.000               
> 2026 05 04 17 30  0.9950000  0 30                                             
G17  22151676.969   116407895.320       -3138.196          29.000               
G04  18903843.878    99340353.360        -668.878          40.000               
E11  23507793.688   123534268.778       -2852.750          32.000               
G01  22902055.166   120351093.578       -3770.872          27.000               
C20  21398739.287   111428852.375       -2068.948          40.000               
C29  22749903.272   118464699.029       -3372.550          31.000               
C10  38410942.842   200015859.086         -13.884          34.000               
C23  25002252.566   130193235.880        -574.922          30.000               
C12  20027727.438   104289637.672       -1049.617          34.000               
C35  21045442.141   109589149.311        -792.717          38.000               
R24  18366355.521    98213147.245        1477.790          39.000               
R01  18665382.241    99777165.505        2088.415          36.000               
G03  20357901.926   106981495.805       -2740.840          38.000               
E04  24889849.818   130797043.026       -2665.976          19.000               
G31  22101418.286   116143742.195       -1927.146          33.000               
G19  20370934.516   107049977.138       -2142.033          42.000               
G09  18869463.627    99159695.892        1589.088          42.000               
C19  20432285.128   106396276.174         533.537          38.000               
C11  24728689.146   128768773.573       -3635.349          20.000               
C07  38284675.540   199358351.867        -483.401          26.000               
C31  22551985.063   117434060.144        1952.089          34.000               
E09  22042491.957   115834070.463        -364.730          38.000               
G06  19561224.158   102794926.784        1365.988          42.000               
G11  22383513.037   117626135.807        3249.658          32.000               
E05  23353662.189   122724309.350        2294.858          38.000               
C22  23257571.074   121108281.150        2693.514          32.000               
E34  23020368.782   120972839.686        1734.356          33.000               
E36  22050544.062   115876421.320        -977.605          37.000               
E06  23035581.719   121052814.839       -1692.006          37.000               
E14  17123303.855    89983560.405       -2127.716          28.000               
> 2026 05 04 17 30  1.9950000  0 30                                             
G17  22152274.098   116411033.629       -3138.762          29.000               
G04  18903971.320    99341023.004        -670.021          40.000               
E11  23508336.634   123537122.133       -2853.561          32.000               
G01  22902772.921   120354864.741       -3771.368          27.000               
C20  21399136.647   111430921.604       -2069.582          41.000               
C29  22750550.969   118468072.597       -3373.451          30.000               
C10  38410945.599   200015873.825         -15.583          33.000               
C23  25002362.883   130193811.454        -576.025          31.000               
C12  20027928.993   104290687.186       -1049.807          34.000               
C35  21045594.460   109589942.443        -793.262          38.000               
R24  18366079.230    98211669.801        1477.212          39.000               
R01  18664991.725    99775077.921        2087.427          37.000               
G03  20358423.662   106984237.045       -2741.164          37.000               
E04  24890356.461   130799705.837       -2659.051          20.000               
G31  22101785.056   116145670.533       -1928.180          33.000               
G19  20371342.196   107052119.825       -2142.896          42.000               
G09  18869161.446    99158107.477        1588.215          42.000               
C19  20432182.610   106395742.717         533.278          39.000               
C11  24729386.359   128772403.381       -3638.323          21.000               
C07  38284767.766   199358835.811        -484.357          26.000               
C31  22551610.406   117432108.855        1950.938          34.000               
E09  22042561.546   115834435.833        -365.467          38.000               
G06  19560964.308   102793561.383        1365.027          42.000               
G11  22382894.587   117622885.847        3249.835          33.000               
E05  23353225.545   122722014.554        2294.532          38.000               
C22  23257053.705   121105588.207        2693.134          31.000               
E34  23020038.987   120971105.555        1734.184          33.000               
E36  22050729.952   115877399.355        -978.330          36.000               
E06  23035903.891   121054507.067       -1692.175          37.000               
E14  17123712.678    89985688.870       -2129.118          28.000               
> 2026 05 04 17 30  2.9950000  0 29                                             
G17  22152871.204   116414172.304       -3138.265          29.000               
G04  18904098.878    99341693.353        -671.005          38.000               
E11  23508879.440   123539975.708       -2854.307          32.000               
G01  22903490.637   120358636.100       -3772.122          27.000               
C20  21399534.166   111432991.159       -2070.012          40.000               
C29  22751198.842   118471446.489       -3374.805          31.000               
C10  38410948.537   200015888.743         -15.843          33.000               
C23  25002473.536   130194387.594        -576.838          30.000               
C12  20028130.636   104291737.120       -1050.229          33.000               
C35  21045746.932   109590736.353        -794.215          38.000               
R24  18365802.984    98210193.378        1476.021          39.000               
G03  20358945.376   106986978.590       -2742.303          36.000               
E04  24890861.662   130802360.368       -2635.971          19.000               
G31  22102152.070   116147599.530       -1929.222          33.000               
G19  20371750.121   107054263.238       -2143.951          42.000               
G09  18868859.284    99156519.749        1587.115          42.000               
C19  20432080.179   106395209.792         532.557          39.000               
C11  24730083.592   128776034.619       -3648.009          22.000               
C07  38284860.325   199359319.345        -483.895          26.000               
C31  22551235.814   117430158.119        1950.340          33.000               
E09  22042631.216   115834801.733        -366.529          37.000               
G06  19560704.677   102792196.637        1364.401          42.000               
G11  22382276.173   117619636.207        3248.944          32.000               
E05  23352788.910   122719720.190        2293.857          38.000               
C22  23256536.522   121102895.714        2692.300          29.000               
E34  23019709.262   120969371.852        1733.450          32.000               
E36  22050916.045   115878377.858        -979.061          37.000               
E06  23036226.129   121056199.731       -1692.778          37.000               
E14  17124121.987    89987818.757       -2130.708          28.000               
> 2026 05 04 17 30  3.9950000  0 29                                             
G17  22153468.397   116417311.312       -3139.786          28.000               
G04  18904226.605    99342364.341        -671.337          38.000               
E11  23509422.454   123542829.584       -2854.161          32.000               
G01  22904208.454   120362407.635       -3771.699          27.000               
C20  21399931.690   111435061.056       -2069.878          40.000               
C29  22751846.800   118474820.605       -3374.447          31.000               
C10  38410951.394   200015903.942         -14.927          32.000               
C23  25002584.189   130194964.444        -578.219          30.000               
C12  20028332.349   104292787.586       -1051.141          33.000               
C35  21045899.473   109591530.797        -794.882          38.000               
R24  18365527.112    98208717.814        1474.473          38.000               
G03  20359467.111   106989720.512       -2742.265          35.000               
E04  24891366.833   130805014.743       -2661.844          18.000               
G31  22102519.159   116149529.382       -1930.563          32.000               
G19  20372158.172   107056407.320       -2144.536          41.000               
G09  18868557.278    99154932.636        1586.637          42.000               
C19  20431977.839   106394677.259         532.209          39.000               
C11  24730782.162   128779672.250       -3632.757          22.000               
C07  38284953.260   199359803.719        -484.380          27.000               
C31  22550861.427   117428207.879        1950.253          34.000               
E09  22042700.919   115835168.165        -366.518          37.000               
G06  19560445.158   102790832.463        1363.865          42.000               
G11  22381657.696   117616386.826        3248.486          33.000               
E05  23352352.181   122717426.221        2293.483          38.000               
C22  23256019.584   121100203.370        2692.120          30.000               
E34  23019379.531   120967638.449        1733.004          33.000               
E36  22051102.416   115879356.840        -979.728          37.000               
E06  23036548.335   121057892.859       -1693.255          37.000               
E14  17124528.148    89989950.073       -2132.368          28.000               
> 2026 05 04 17 30  4.9950000  0 29                                             
G17  22154065.713   116420450.756       -3139.237          28.000               
G04  18904354.469    99343036.205        -671.659          39.000               
E11  23509965.516   123545683.892       -2854.331          31.000               
G01  22904926.484   120366179.604       -3771.406          26.000               
C20  21400329.142   111437131.509       -2070.570          42.000               
C29  22752494.765   118478195.358       -3375.259          30.000               
C10  38410954.356   200015919.748         -15.504          32.000               
C23  25002695.228   130195542.022        -577.715          34.000               
C12  20028534.279   104293838.607       -1050.985          34.000               
C35  21046052.290   109592326.102        -795.002          37.000               
R24  18365251.322    98207243.373        1474.156          37.000               
G03  20359988.821   106992462.947       -2742.289          36.000               
E04  24891874.858   130807685.132       -2668.926          17.000               
G31  22102886.501   116151460.000       -1930.212          34.000               
G19  20372566.386   107058552.239       -2144.999          43.000               
G09  18868255.431    99153346.317        1586.230          43.000               
C19  20431875.606   106394145.412         531.964          39.000               
C11  24731481.473   128783313.742       -3639.126          21.000               
C07  38285048.152   199360292.130        -485.629          28.000               
C31  22550487.142   117426258.359        1950.350          33.000               
E09  22042770.824   115835535.300        -366.830          38.000               
G06  19560185.643   102789469.138        1363.527          42.000               
G11  22381039.517   117613137.901        3249.066          34.000               
E05  23351915.591   122715132.800        2293.229          36.000               
C22  23255502.863   121097511.505        2691.958          37.000               
E34  23019050.010   120965905.592        1733.690          34.000               
E36  22051289.008   115880336.467        -979.532          37.000               
E06  23036870.829   121059586.645       -1693.380          37.000               
E14  17124933.313    89992082.749       -2132.533          28.000               
> 2026 05 04 17 30  5.9950000  0 29                                             
G17  22154663.146   116423590.457       -3139.956          29.000               
G04  18904482.374    99343708.709        -673.239          39.000               
E11  23510508.580   123548538.414       -2854.853          31.000               
G01  22905644.473   120369951.828       -3773.533          26.000               
C20  21400726.860   111439202.228       -2071.464          40.000               
C29  22753143.165   118481570.145       -3375.515          30.000               
C10  38410957.240   200015935.640         -15.593          32.000               
C23  25002806.119   130196120.198        -577.229          33.000               
C12  20028736.206   104294889.989       -1051.665          34.000               
C35  21046205.181   109593122.082        -796.273          37.000               
R24  18364975.684    98205769.723        1472.741          38.000               
G03  20360510.647   106995205.627       -2743.067          36.000               
E04  24892383.021   130810355.185       -2658.703          15.000               
G31  22103253.976   116153391.339       -1931.959          33.000               
G19  20372974.674   107060697.758       -2145.784          43.000               
G09  18867953.678    99151760.611        1585.334          43.000               
C19  20431773.495   106393613.972         530.984          39.000               
C11  24732180.769   128786954.549       -3653.028          20.000               
C07  38285140.786   199360777.180        -484.828          28.000               
C31  22550112.944   117424309.296        1948.602          33.000               
E09  22042840.592   115835902.917        -368.098          38.000               
G06  19559926.546   102788106.381        1362.336          42.000               
G11  22380421.271   117609889.146        3249.017          34.000               
E05  23351479.075   122712839.677        2293.335          35.000               
C22  23254986.059   121094819.711        2692.502          33.000               
E34  23018720.789   120964173.007        1732.313          35.000               
E36  22051475.809   115881316.546        -980.759          37.000               
E06  23037193.081   121061280.773       -1694.675          37.000               
E14  17125337.191    89994216.857       -2135.826          30.000               
> 2026 05 04 17 30  6.9950000  0 30                                             
G17  22155260.609   116426730.350       -3139.702          30.000               
G04  18904610.562    99344381.749        -673.077          39.000               
E11  23511051.377   123551393.075       -2854.117          31.000               
G01  22906362.866   120373724.081       -3773.025          27.000               
C20  21401124.489   111441273.185       -2071.007          40.000               
C29  22753791.347   118484945.211       -3375.271          30.000               
C10  38410960.283   200015951.816         -16.141          31.000               
C23  25002917.158   130196698.922        -579.677          32.000               
C12  20028938.241   104295941.740       -1051.581          36.000               
C35  21046358.113   109593918.589        -796.837          37.000               
R24  18364700.307    98204296.901        1472.513          37.000               
G03  20361032.441   106997948.562       -2742.968          36.000               
E04  24892891.664   130813028.150       -2669.007          16.000               
G31  22103621.572   116155323.334       -1932.230          33.000               
G19  20373383.036   107062843.919       -2146.273          42.000               
G09  18867652.082    99150175.423        1585.326          43.000               
C19  20431671.465   106393082.906         531.219          39.000               
C11  24732880.152   128790596.558       -3645.678          19.000               
C07  38285234.724   199361262.522        -485.197          27.000               
C31  22549738.828   117422360.687        1948.740          34.000               
R23  19231071.902   102873266.577       -3577.588          34.000               
E09  22042910.422   115836270.963        -367.931          38.000               
G06  19559667.424   102786744.123        1361.968          43.000               
G11  22379803.045   117606640.658        3248.688          34.000               
E05  23351042.801   122710546.858        2292.868          35.000               
C22  23254469.166   121092128.235        2691.976          34.000               
E34  23018391.371   120962440.743        1731.826          35.000               
E36  22051662.202   115882296.877        -980.023          36.000               
E06  23037515.391   121062975.236       -1694.374          36.000               
E14  17125741.251    89996352.187       -2136.122          31.000               
> 2026 05 04 17 30  7.9950000  0 29                                             
G17  22155858.048   116429870.155       -3139.868          30.000               
G04  18904738.649    99345055.131        -673.991          39.000               
E11  23511594.377   123554247.730       -2854.519          31.000               
C20  21401522.086   111443344.127       -2070.678          40.000               
C29  22754439.768   118488320.197       -3375.906          30.000               
C10  38410963.271   200015967.823         -15.390          31.000               
C23  25003028.192   130197277.813        -579.177          33.000               
C12  20029140.353   104296993.593       -1052.012          35.000               
C35  21046510.979   109594715.355        -796.846          37.000               
R24  18364424.915    98202824.530        1471.956          38.000               
G03  20361554.344   107000691.478       -2742.974          35.000               
E04  24893401.464   130815707.367       -2651.901          16.000               
G31  22103989.278   116157255.686       -1932.331          34.000               
G19  20373791.421   107064990.343       -2146.754          42.000               
G09  18867350.461    99148590.518        1584.699          43.000               
C19  20431569.461   106392551.954         531.042          39.000               
C11  24733581.926   128794251.472       -3633.875          22.000               
C07  38285328.203   199361747.675        -485.336          28.000               
C31  22549364.744   117420412.206        1948.195          34.000               
R23  19231747.633   102876880.994       -3577.912          33.000               
E09  22042980.477   115836639.153        -368.494          38.000               
G06  19559408.235   102785382.126        1361.748          43.000               
G11  22379184.979   117603392.025        3248.260          34.000               
E05  23350606.456   122708254.078        2292.804          34.000               
C22  23253952.333   121089436.621        2691.971          32.000               
E34  23018061.798   120960708.371        1732.640          34.000               
E36  22051848.780   115883277.440        -980.542          36.000               
E06  23037837.716   121064669.789       -1694.874          36.000               
E14  17126149.705    89998488.485       -2136.624          32.000               
> 2026 05 04 17 30  8.9950000  0 30                                             
G17  22156455.540   116433010.152       -3139.301          31.000               
G04  18904866.844    99345729.012        -674.097          40.000               
E11  23512136.986   123557102.456       -2854.227          31.000               
C20  21401919.854   111445415.249       -2071.145          40.000               
C29  22755088.008   118491695.290       -3375.585          31.000               
C10  38410966.298   200015984.018         -15.509          31.000               
C23  25003139.452   130197857.245        -579.873          32.000               
C12  20029342.406   104298045.639       -1052.261          36.000               
C35  21046664.022   109595512.674        -797.543          36.000               
R24  18364149.721    98201352.935        1471.237          38.000               
G03  20362076.258   107003434.550       -2743.263          35.000               
E04  24893908.012   130818369.441       -2673.042          14.000               
G31  22104357.101   116159188.552       -1932.941          34.000               
G19  20374200.038   107067137.306       -2147.102          43.000               
G09  18867049.022    99147006.077        1584.262          43.000               
C19  20431467.556   106392021.341         530.398          38.000               
C11  24734280.476   128797889.027       -3643.015          23.000               
C07  38285421.157   199362232.485        -485.068          27.000               
C31  22548990.663   117418464.099        1948.059          35.000               
C37  24515489.945   127658588.545        1640.069          25.000               
R23  19232421.857   102880458.488       -3577.356          32.000               
E09  22043050.490   115837007.731        -368.771          38.000               
G06  19559149.088   102784020.576        1361.619          44.000               
G11  22378566.873   117600143.534        3248.291          34.000               
E05  23350170.286   122705961.524        2292.655          34.000               
C22  23253435.419   121086745.176        2691.717          32.000               
E34  23017732.296   120958976.243        1732.184          34.000               
E36  22052035.230   115884258.275        -980.939          36.000               
E06  23038160.206   121066364.602       -1694.965          36.000               
E14  17126555.664    90000626.021       -2138.090          33.000               
> 2026 05 04 17 30  9.9950000  0 30                                             
G17  22157053.205   116436150.352       -3139.610          31.000               
G04  18904995.229    99346403.465        -674.751          40.000               
E11  23512679.980   123559957.409       -2854.933          30.000               
C20  21402317.685   111447486.586       -2071.569          39.000               
C29  22755736.258   118495070.529       -3374.642          32.000               
C10  38410969.377   200016000.399         -16.250          32.000               
C23  25003250.588   130198437.281        -580.566          33.000               
C12  20029544.702   104299098.092       -1053.333          35.000               
C35  21046817.235   109596310.525        -797.952          36.000               
R24  18363874.510    98199882.171        1470.267          38.000               
G03  20362598.119   107006177.866       -2743.661          36.000               
E04  24894412.874   130821021.737       -2673.042          13.000               
G31  22104725.057   116161122.070       -1933.463          34.000               
G19  20374608.752   107069284.828       -2148.103          43.000               
G09  18866747.569    99145422.160        1583.853          43.000               
C19  20431365.594   106391491.043         529.851          38.000               
C11  24734980.567   128801534.337       -3635.027          22.000               
C07  38285512.306   199362718.006        -485.532          27.000               
C31  22548616.803   117416516.409        1947.906          35.000               
C37  24515176.200   127656954.756        1639.548          25.000               
R23  19233093.641   102884036.576       -3579.071          33.000               
E09  22043120.695   115837376.745        -369.327          38.000               
G06  19558890.050   102782659.560        1360.741          43.000               
G11  22377948.888   117596895.168        3248.486          35.000               
E05  23349733.929   122703669.208        2292.567          34.000               
C22  23252918.569   121084053.819        2691.183          33.000               
E34  23017402.821   120957244.340        1731.375          34.000               
E36  22052221.747   115885239.408        -981.194          36.000               
E06  23038482.809   121068059.727       -1695.297          37.000               
E14  17126961.444    90002764.780       -2139.522          33.000               
> 2026 05 04 17 30 10.9950000  0 31                                             
G17  22157650.737   116439290.962       -3140.862          31.000               
G04  18905123.712    99347078.593        -674.832          40.000               
E11  23513222.959   123562812.522       -2854.377          31.000               
C20  21402715.527   111449558.271       -2071.490          39.000               
C29  22756384.747   118498446.171       -3375.347          32.000               
C10  38410972.414   200016017.016         -16.177          32.000               
C23  25003361.849   130199017.839        -580.320          31.000               
C12  20029746.973   104300150.861       -1052.356          35.000               
C35  21046970.632   109597109.069        -798.349          36.000               
R24  18363599.457    98198412.287        1470.265          38.000               
G28  24216652.522   127259367.778       -2891.556          15.000               
G03  20363119.995   107008921.473       -2743.394          36.000               
E04  24894923.847   130823707.177       -2661.172          16.000               
G31  22105093.049   116163056.296       -1934.045          34.000               
G19  20375017.632   107071433.006       -2147.940          42.000               
G09  18866446.290    99143838.880        1583.596          43.000               
C19  20431263.738   106390961.248         529.963          38.000               
C11  24735679.108   128805171.957       -3644.313          21.000               
C07  38285604.622   199363203.771        -485.868          27.000               
C31  22548242.884   117414569.286        1946.977          35.000               
C37  24514862.385   127655321.462        1638.816          25.000               
R23  19233764.192   102887615.245       -3578.327          33.000               
E09  22043190.766   115837746.222        -369.041          38.000               
G06  19558631.225   102781299.170        1360.768          43.000               
G11  22377330.870   117593647.122        3248.871          35.000               
E05  23349297.863   122701377.313        2292.333          34.000               
C22  23252401.872   121081362.765        2691.721          34.000               
E34  23017073.430   120955512.841        1731.491          34.000               
E36  22052408.165   115886221.087        -981.472          36.000               
E06  23038805.197   121069755.275       -1694.915          37.000               
E14  17127370.202    90004904.916       -2140.391          33.000               
> 2026 05 04 17 30 11.9950000  0 31                                             
G17  22158248.212   116442431.213       -3140.523          31.000               
G04  18905252.228    99347753.932        -675.765          40.000               
E11  23513766.041   123565667.524       -2855.318          31.000               
C20  21403113.232   111451629.806       -2071.936          39.000               
C29  22757033.069   118501821.541       -3375.524          32.000               
C10  38410975.573   200016033.499         -16.074          32.000               
C23  25003473.314   130199598.535        -580.758          32.000               
C12  20029949.144   104301203.715       -1053.234          35.000               
C35  21047124.009   109597907.726        -799.615          36.000               
R24  18363324.569    98196942.802        1469.011          38.000               
G28  24217198.951   127262239.339       -2891.556          14.000               
G03  20363641.902   107011664.954       -2743.440          35.000               
E04  24895433.288   130826384.863       -2655.456          17.000               
G31  22105461.053   116164990.771       -1934.887          33.000               
G19  20375426.550   107073581.385       -2148.598          41.000               
G09  18866145.168    99142255.771        1582.809          42.000               
C19  20431161.848   106390431.387         530.031          38.000               
C11  24736377.301   128808806.973       -3641.510          20.000               
C07  38285700.173   199363689.399        -486.475          27.000               
C31  22547868.980   117412622.154        1946.982          36.000               
C37  24514547.008   127653679.184        1639.305          25.000               
R23  19234433.681   102891194.149       -3579.065          33.000               
E09  22043261.337   115838115.810        -369.910          38.000               
G06  19558372.477   102779938.911        1360.169          42.000               
G11  22376712.528   117590398.809        3248.566          34.000               
E05  23348861.720   122699085.302        2291.931          34.000               
C22  23251885.131   121078671.450        2691.148          33.000               
E34  23016744.071   120953781.102        1732.007          35.000               
E36  22052594.978   115887202.767        -982.336          36.000               
E06  23039127.698   121071450.831       -1696.013          37.000               
E14  17127777.794    90007045.944       -2141.640          33.000               
> 2026 05 04 17 30 12.9950000  0 31                                             
G17  22158845.932   116445571.981       -3140.379          30.000               
G04  18905380.934    99348430.081        -676.620          39.000               
E11  23514309.131   123568522.901       -2855.989          31.000               
C20  21403511.014   111453701.851       -2072.329          39.000               
C29  22757681.414   118505197.369       -3375.719          30.000               
C10  38410978.682   200016050.412         -17.644          32.000               
C23  25003585.040   130200180.044        -581.740          32.000               
C12  20030151.548   104302257.095       -1053.763          36.000               
C35  21047277.498   109598707.256        -799.787          36.000               
R24  18363049.963    98195474.411        1467.756          39.000               
R16  22308491.365   119167956.408       -1736.316          34.000               
G03  20364164.195   107014408.939       -2744.472          35.000               
E04  24895942.200   130829058.770       -2661.179          20.000               
G31  22105829.294   116166926.108       -1936.206          33.000               
G19  20375835.486   107075730.660       -2149.825          42.000               
G09  18865844.072    99140673.468        1581.607          42.000               
C19  20431060.211   106389902.240         528.861          39.000               
C11  24737074.799   128812439.490       -3645.657          20.000               
C07  38285791.897   199364164.709        -486.691          26.000               
C31  22547495.296   117410675.735        1946.187          35.000               
C37  24514232.849   127652042.523        1639.013          26.000               
R23  19235103.033   102894773.419       -3580.292          33.000               
E09  22043331.751   115838486.036        -370.740          38.000               
G06  19558113.773   102778579.458        1358.928          42.000               
G11  22376094.526   117587151.017        3247.778          33.000               
E05  23348425.872   122696793.827        2291.033          35.000               
C22  23251368.355   121075980.649        2690.383          33.000               
E34  23016414.722   120952049.982        1731.217          34.000               
E36  22052781.817   115888185.031        -982.551          36.000               
E06  23039450.650   121073146.953       -1696.715          37.000               
E14  17128185.768    90009188.483       -2143.204          34.000               
> 2026 05 04 17 30 13.9950000  0 31                                             
G17  22159443.591   116448713.418       -3142.281          30.000               
G04  18905509.753    99349107.190        -677.639          40.000               
E11  23514852.448   123571378.772       -2855.707          31.000               
C20  21403909.098   111455774.516       -2072.721          39.000               
C29  22758329.842   118508573.803       -3376.157          31.000               
C10  38410981.966   200016067.849         -17.429          31.000               
C23  25003696.909   130200762.482        -582.708          33.000               
C12  20030353.994   104303311.214       -1054.913          37.000               
C35  21047431.160   109599507.684        -800.813          37.000               
R24  18362775.686    98194007.175        1467.139          38.000               
R16  22308817.941   119169692.786       -1736.975          34.000               
G03  20364686.333   107017153.478       -2744.684          35.000               
E04  24896452.840   130831742.352       -2665.342          21.000               
G31  22106197.649   116168862.441       -1936.379          32.000               
G19  20376244.638   107077880.827       -2150.409          42.000               
G09  18865543.244    99139092.045        1580.941          42.000               
C19  20430958.712   106389373.794         528.144          39.000               
C11  24737773.687   128816078.405       -3652.785          20.000               
C07  38285885.020   199364649.353        -486.954          26.000               
C31  22547121.668   117408730.094        1945.714          35.000               
C37  24513918.093   127650403.634        1635.469          25.000               
R23  19235772.416   102898354.086       -3581.208          32.000               
E09  22043402.493   115838857.103        -371.291          39.000               
G06  19557855.314   102777220.861        1358.512          42.000               
G11  22375476.562   117583903.745        3247.034          33.000               
E05  23347990.229   122694503.027        2290.513          35.000               
C22  23250851.568   121073290.210        2691.334          32.000               
E34  23016085.586   120950319.416        1730.763          33.000               
E36  22052968.880   115889168.066        -983.469          36.000               
E06  23039773.665   121074843.794       -1697.187          37.000               
E14  17128594.416    90011332.621       -2145.044          34.000               
> 2026 05 04 17 30 14.9950000  0 31                                             
G17  22160041.444   116451855.196       -3142.607          30.000               
G04  18905638.796    99349785.050        -678.613          39.000               
E11  23515395.916   123574235.026       -2856.393          31.000               
C20  21404307.366   111457847.614       -2073.975          41.000               
C29  22758978.508   118511950.572       -3377.357          31.000               
C10  38410985.382   200016085.624         -18.126          32.000               
C23  25003808.639   130201345.572        -583.769          33.000               
C12  20030556.530   104304365.787       -1055.149          37.000               
C35  21047584.975   109600308.866        -802.025          36.000               
R24  18362501.485    98192540.971        1465.259          39.000               
R16  22309147.748   119171430.191       -1738.233          34.000               
G03  20365208.649   107019898.482       -2745.476          36.000               
E04  24896961.229   130834413.859       -2669.087          20.000               
G31  22106566.214   116170799.607       -1938.078          33.000               
G19  20376653.893   107080031.782       -2151.721          42.000               
G09  18865242.545    99137511.342        1579.927          42.000               
C19  20430857.258   106388845.898         527.407          39.000               
C11  24738471.740   128819713.244       -3641.644          19.000               
C07  38285977.897   199365135.764        -487.222          27.000               
C31  22546748.238   117406785.100        1943.859          34.000               
C37  24513603.693   127648766.344        1637.111          26.000               
R23  19236442.182   102901935.474       -3581.861          32.000               
E09  22043473.386   115839228.758        -372.209          38.000               
G06  19557596.824   102775862.998        1357.067          42.000               
G11  22374858.782   117580656.816        3246.240          33.000               
E05  23347554.281   122692212.702        2289.487          35.000               
C22  23250334.992   121070600.217        2690.176          30.000               
E34  23015756.451   120948589.311        1729.649          34.000               
E36  22053156.263   115890151.628        -984.022          37.000               
E06  23040096.703   121076541.115       -1697.514          38.000               
E14  17129002.681    90013478.279       -2147.295          34.000               
> 2026 05 04 17 30 15.9950000  0 31                                             
G17  22160639.324   116454997.293       -3141.590          31.000               
G04  18905768.017    99350463.649        -678.877          40.000               
E11  23515939.469   123577091.644       -2856.390          32.000               
C20  21404705.441   111459921.048       -2073.414          40.000               
C29  22759627.416   118515327.705       -3377.331          31.000               
C10  38410989.103   200016103.808         -18.779          33.000               
C23  25003920.838   130201929.350        -584.331          32.000               
C12  20030759.263   104305420.882       -1055.088          38.000               
C35  21047738.893   109601110.769        -802.147          36.000               
R24  18362227.429    98191075.674        1465.121          38.000               
R16  22309472.071   119173168.480       -1738.062          35.000               
G03  20365731.033   107022643.850       -2745.357          37.000               
E04  24897471.165   130837093.786       -2667.766          21.000               
G31  22106935.034   116172737.553       -1939.076          33.000               
G19  20377063.325   107082183.444       -2151.817          43.000               
G09  18864941.829    99135931.339        1579.547          43.000               
C19  20430755.840   106388318.544         527.546          39.000               
C11  24739171.408   128823356.747       -3644.421          19.000               
C07  38286070.760   199365623.006        -487.408          27.000               
C31  22546374.897   117404840.681        1943.789          33.000               
C37  24513288.777   127647126.695        1636.938          26.000               
R23  19237111.892   102905517.634       -3581.745          32.000               
E09  22043544.441   115839601.009        -372.528          38.000               
G06  19557338.586   102774505.798        1357.155          43.000               
G11  22374240.793   117577410.216        3246.631          34.000               
E05  23347118.363   122689922.781        2289.801          35.000               
C22  23249818.417   121067910.581        2689.824          29.000               
E34  23015427.474   120946859.625        1729.237          33.000               
E36  22053343.552   115891135.724        -984.015          37.000               
E06  23040419.862   121078238.970       -1698.061          38.000               
E14  17129411.417    90015625.258       -2147.386          34.000               
> 2026 05 04 17 30 16.9950000  0 31                                             
G17  22161237.188   116458139.787       -3142.378          31.000               
G04  18905897.289    99351142.948        -679.192          40.000               
E11  23516483.195   123579948.553       -2856.163          32.000               
C20  21405103.729   111461994.904       -2073.625          40.000               
C29  22760276.081   118518705.138       -3377.513          31.000               
C10  38410992.683   200016122.221         -17.850          32.000               
C23  25004033.202   130202513.764        -583.984          32.000               
C12  20030961.965   104306476.445       -1055.074          37.000               
C35  21047892.875   109601913.338        -801.903          35.000               
R24  18361953.650    98189611.342        1464.173          38.000               
R16  22309796.840   119174907.139       -1739.124          35.000               
G03  20366253.483   107025389.607       -2745.571          37.000               
E04  24897978.595   130839760.304       -2665.224          21.000               
G31  22107303.886   116174676.209       -1938.573          33.000               
G19  20377472.893   107084335.818       -2152.198          43.000               
G09  18864641.272    99134351.995        1579.428          43.000               
C19  20430654.677   106387791.660         527.263          40.000               
C11  24739869.989   128826995.226       -3629.462          18.000               
C07  38286164.041   199366110.582        -487.414          27.000               
C31  22546001.630   117402896.734        1944.213          33.000               
C37  24512974.593   127645490.414        1636.176          26.000               
R23  19237781.856   102909100.533       -3583.148          31.000               
E09  22043615.312   115839973.809        -372.628          38.000               
G06  19557080.429   102773149.264        1356.607          43.000               
G11  22373623.079   117574163.934        3246.448          33.000               
E05  23346682.706   122687633.312        2289.474          35.000               
C22  23249301.940   121065221.281        2688.941          28.000               
E34  23015098.510   120945130.295        1729.364          33.000               
E36  22053531.285   115892120.332        -984.532          38.000               
E06  23040743.129   121079937.278       -1698.221          37.000               
E14  17129820.742    90017773.668       -2148.534          35.000               
> 2026 05 04 17 30 17.9950000  0 31                                             
G17  22161835.234   116461282.238       -3142.047          31.000               
G04  18906026.636    99351822.615        -679.552          40.000               
E11  23517026.765   123582805.408       -2856.958          31.000               
C20  21405501.978   111464068.782       -2073.748          40.000               
C29  22760924.784   118522082.494       -3376.126          30.000               
C10  38410996.271   200016140.738         -18.603          32.000               
C23  25004145.298   130203098.578        -584.898          30.000               
C12  20031164.800   104307532.158       -1055.618          37.000               
C35  21048047.077   109602716.303        -802.851          36.000               
R24  18361679.857    98188147.564        1464.022          38.000               
R16  22310123.618   119176646.915       -1740.637          35.000               
G03  20366775.958   107028135.372       -2745.307          37.000               
E04  24898486.876   130842430.933       -2664.072          21.000               
G31  22107672.939   116176615.241       -1938.408          32.000               
G19  20377882.578   107086488.567       -2152.797          43.000               
G09  18864340.769    99132772.970        1579.186          43.000               
C19  20430553.443   106387264.943         526.901          40.000               
C11  24740568.000   128830629.270       -3642.691          18.000               
C07  38286256.820   199366598.197        -487.518          27.000               
C31  22545628.392   117400953.068        1943.739          33.000               
C37  24512661.785   127643862.388        1635.537          26.000               
R23  19238451.962   102912683.773       -3583.680          31.000               
E09  22043686.113   115840346.828        -372.841          38.000               
G06  19556822.292   102771793.041        1356.137          43.000               
G11  22373005.222   117570917.627        3246.222          33.000               
E05  23346246.910   122685343.906        2289.659          35.000               
C22  23248785.191   121062531.906        2689.567          29.000               
E34  23014769.602   120943401.009        1729.362          33.000               
E36  22053718.581   115893105.113        -984.769          38.000               
E06  23041066.209   121081635.714       -1698.223          38.000               
E14  17130229.633    90019923.126       -2149.921          35.000               
> 2026 05 04 17 30 18.9950000  0 31                                             
G17  22162433.102   116464424.888       -3143.254          32.000               
G04  18906156.108    99352502.820        -680.573          40.000               
E11  23517570.644   123585662.381       -2856.898          31.000               
C20  21405900.346   111466142.869       -2074.793          40.000               
C29  22761573.569   118525460.170       -3378.306          30.000               
C10  38410999.845   200016159.280         -18.651          32.000               
C23  25004257.444   130203683.755        -584.297          30.000               
C12  20031367.579   104308588.121       -1056.023          38.000               
C35  21048201.321   109603519.753        -804.020          36.000               
R24  18361406.176    98186684.613        1462.591          38.000               
R16  22310449.299   119178387.315       -1740.411          35.000               
G03  20367298.541   107030881.329       -2746.521          37.000               
E04  24898994.358   130845097.721       -2658.346          22.000               
G31  22108041.947   116178554.906       -1940.408          32.000               
G19  20378292.333   107088641.842       -2153.942          43.000               
G09  18864040.421    99131194.453        1578.170          43.000               
C19  20430452.287   106386738.582         526.046          40.000               
C11  24741268.038   128834274.589       -3642.257          20.000               
C07  38286350.225   199367085.790        -487.875          27.000               
C31  22545255.202   117399009.788        1942.365          33.000               
C37  24512347.761   127642226.598        1633.703          26.000               
R23  19239122.074   102916267.495       -3584.485          31.000               
E09  22043757.524   115840720.246        -373.806          38.000               
G06  19556564.290   102770437.309        1355.070          43.000               
G11  22372387.381   117567671.417        3246.222          33.000               
E05  23345811.643   122683054.754        2289.081          35.000               
C22  23248268.660   121059842.705        2688.624          30.000               
E34  23014440.875   120941671.927        1728.497          33.000               
E36  22053905.905   115894090.189        -985.445          38.000               
E06  23041389.421   121083334.448       -1699.052          37.000               
E14  17130638.841    90022073.803       -2151.397          34.000               
> 2026 05 04 17 30 19.9950000  0 31                                             
G17  22163031.215   116467567.658       -3141.309          31.000               
G04  18906285.720    99353183.623        -681.130          40.000               
E11  23518114.088   123588519.631       -2857.683          31.000               
C20  21406298.719   111468217.220       -2074.157          40.000               
C29  22762222.412   118528837.899       -3377.148          30.000               
C10  38411003.348   200016178.127         -19.760          32.000               
C23  25004369.830   130204269.665        -586.999          30.000               
C12  20031570.614   104309644.511       -1056.947          38.000               
C35  21048355.784   109604323.792        -804.095          36.000               
R24  18361132.732    98185222.451        1462.024          38.000               
R16  22310774.848   119180128.571       -1741.138          35.000               
G03  20367820.976   107033627.545       -2746.063          36.000               
E04  24899502.715   130847769.313       -2656.073          21.000               
G31  22108411.152   116180495.231       -1940.619          33.000               
G19  20378702.171   107090795.722       -2154.292          43.000               
G09  18863740.026    99129616.506        1577.626          43.000               
C19  20430351.262   106386212.604         526.028          40.000               
C11  24741966.100   128837910.005       -3642.669          19.000               
C07  38286442.938   199367573.702        -487.761          27.000               
C31  22544882.016   117397066.960        1942.231          35.000               
C37  24512034.683   127640596.341        1634.690          26.000               
R23  19239792.319   102919851.860       -3584.559          32.000               
E09  22043828.758   115841094.109        -374.011          38.000               
G06  19556306.369   102769082.104        1355.037          43.000               
G11  22371769.742   117564425.436        3246.026          33.000               
E05  23345376.258   122680765.889        2289.179          35.000               
C22  23247751.922   121057153.604        2688.411          30.000               
E34  23014112.126   120939943.085        1728.949          33.000               
E36  22054093.542   115895075.699        -985.587          38.000               
E06  23041712.832   121085033.540       -1698.893          38.000               
E14  17131048.669    90024225.759       -2152.700          35.000               
> 2026 05 04 17 30 20.9950000  0 33                                             
G17  22163629.417   116470710.721       -3142.857          32.000               
G04  18906415.480    99353864.893        -681.304          40.000               
E11  23518657.517   123591376.907       -2857.817          31.000               
G01  22916412.184   120426558.035       -3772.034          21.000               
C20  21406697.140   111470291.737       -2074.217          40.000               
C29  22762871.090   118532215.818       -3376.823          31.000               
C10  38411007.066   200016196.969         -17.797          32.000               
C23  25004482.094   130204855.890        -586.237          30.000               
C12  20031773.571   104310701.105       -1056.727          38.000               
C35  21048510.165   109605128.308        -804.336          36.000               
R24  18360859.424    98183761.004        1461.072          37.000               
R16  22311100.981   119181870.511       -1742.273          35.000               
R01  18657592.277    99735523.348        2077.340          37.000               
G03  20368343.514   107036373.931       -2746.350          37.000               
E04  24900011.092   130850440.730       -2669.036          21.000               
G31  22108780.338   116182436.081       -1940.530          33.000               
G19  20379112.161   107092950.098       -2154.415          43.000               
G09  18863439.913    99128039.015        1577.364          43.000               
C19  20430250.428   106385686.921         525.609          40.000               
C11  24742665.400   128841550.694       -3639.930          20.000               
C07  38286535.072   199368061.736        -487.854          26.000               
C31  22544508.881   117395124.449        1942.650          35.000               
C37  24511720.761   127638961.378        1635.153          26.000               
R23  19240462.660   102923436.737       -3585.333          32.000               
E09  22043900.034   115841468.319        -374.289          38.000               
G06  19556048.668   102767727.341        1354.749          43.000               
G11  22371151.947   117561179.548        3246.118          34.000               
E05  23344940.813   122678477.265        2288.648          35.000               
C22  23247235.327   121054464.573        2688.996          30.000               
E34  23013783.097   120938214.398        1729.076          34.000               
E36  22054281.116   115896061.466        -985.568          38.000               
E06  23042036.219   121086732.891       -1699.328          38.000               
E14  17131458.165    90026378.876       -2153.670          34.000               
> 2026 05 04 17 30 21.9950000  0 33                                             
G17  22164227.714   116473854.042       -3143.455          32.000               
G04  18906545.291    99354546.887        -682.831          40.000               
E11  23519201.357   123594234.458       -2857.588          31.000               
G01  22917131.007   120430335.773       -3769.778          21.000               
C20  21407095.548   111472366.584       -2075.304          40.000               
C29  22763520.008   118535594.049       -3378.884          32.000               
C10  38411010.594   200016216.201         -19.762          32.000               
C23  25004594.627   130205442.803        -586.881          31.000               
C12  20031976.639   104311758.155       -1057.688          38.000               
C35  21048664.832   109605933.494        -805.554          36.000               
R24  18360586.268    98182300.433        1460.242          37.000               
R16  22311427.259   119183613.332       -1743.921          35.000               
R01  18657203.932    99733446.992        2075.786          36.000               
G03  20368866.218   107039120.669       -2747.363          37.000               
E04  24900518.375   130853106.691       -2662.262          22.000               
G31  22109149.720   116184377.729       -1942.284          32.000               
G19  20379522.281   107095105.163       -2155.881          43.000               
G09  18863139.795    99126462.167        1576.164          43.000               
C19  20430149.492   106385161.735         524.797          40.000               
C11  24743364.766   128845192.829       -3645.445          20.000               
C07  38286629.334   199368549.969        -488.668          26.000               
C31  22544135.887   117393182.517        1941.142          35.000               
C37  24511407.615   127637330.844        1634.255          26.000               
R23  19241132.947   102927022.235       -3586.371          32.000               
E09  22043971.538   115841843.073        -375.403          38.000               
G06  19555791.014   102766373.213        1353.763          43.000               
G11  22370534.316   117557933.966        3245.135          34.000               
E05  23344505.373   122676188.976        2287.906          35.000               
C22  23246718.677   121051775.886        2688.717          29.000               
E34  23013454.204   120936486.168        1727.789          34.000               
E36  22054468.847   115897047.729        -986.923          37.000               
E06  23042359.673   121088432.665       -1700.154          38.000               
E14  17131868.143    90028533.375       -2155.490          34.000               
> 2026 05 04 17 30 22.9950000  0 34                                             
G17  22164826.155   116476997.810       -3143.118          32.000               
G04  18906675.186    99355229.712        -683.186          40.000               
E11  23519745.505   123597092.443       -2857.275          32.000               
G01  22917848.062   120434103.557       -3778.753          22.000               
C20  21407494.070   111474441.937       -2075.277          40.000               
C29  22764169.011   118538972.686       -3379.010          32.000               
C10  38411014.562   200016235.884         -20.137          32.000               
C23  25004707.532   130206030.532        -589.106          32.000               
C12  20032179.832   104312815.791       -1057.936          38.000               
C35  21048819.670   109606739.510        -805.969          36.000               
R24  18360313.300    98180840.996        1458.909          37.000               
R16  22311753.749   119185357.235       -1744.934          35.000               
R01  18656815.518    99731371.382        2075.229          37.000               
G28  24223632.826   127296048.881       -3055.224          16.000               
G03  20369389.025   107041867.886       -2747.061          37.000               
E04  24901026.257   130855775.640       -2663.819          22.000               
G31  22109519.386   116186320.228       -1942.984          33.000               
G19  20379932.503   107097261.042       -2156.292          43.000               
G09  18862839.841    99124886.116        1575.831          43.000               
C19  20430048.716   106384637.150         524.632          40.000               
C11  24744062.502   128848825.911       -3646.193          20.000               
C07  38286722.119   199369038.705        -488.878          26.000               
C31  22543763.116   117391241.241        1941.373          35.000               
C37  24511091.916   127635687.062        1634.589          26.000               
R23  19241803.496   102930608.579       -3586.524          32.000               
E09  22044042.845   115842218.503        -375.386          38.000               
G06  19555533.517   102765019.887        1353.201          43.000               
G11  22369916.786   117554688.762        3245.831          34.000               
E05  23344069.994   122673901.280        2287.764          35.000               
C22  23246201.966   121049087.654        2688.132          28.000               
E34  23013125.287   120934758.405        1727.462          33.000               
E36  22054656.475   115898034.630        -987.058          37.000               
E06  23042683.180   121090133.054       -1700.287          38.000               
E14  17132278.719    90030689.410       -2156.593          35.000               
> 2026 05 04 17 30 23.9950000  0 34                                             
G17  22165424.564   116480141.644       -3143.106          32.000               
G04  18906805.138    99355912.945        -683.456          40.000               
E11  23520289.737   123599950.480       -2858.438          32.000               
G01  22918568.479   120437889.886       -3777.159          22.000               
C20  21407892.581   111476517.397       -2075.378          40.000               
C29  22764817.811   118542351.331       -3378.541          33.000               
C10  38411018.450   200016255.554         -19.806          33.000               
C23  25004820.511   130206618.548        -588.240          31.000               
C12  20032382.978   104313873.625       -1058.033          38.000               
C35  21048974.621   109607545.933        -806.364          36.000               
R24  18360040.558    98179382.206        1458.558          37.000               
R16  22312080.364   119187101.671       -1744.122          36.000               
R01  18656427.288    99729296.104        2075.488          36.000               
G28  24224216.838   127299118.109       -3055.224          16.000               
G03  20369911.738   107044615.164       -2747.346          37.000               
E04  24901532.065   130858434.095       -2663.328          23.000               
G31  22109889.059   116188263.158       -1942.467          32.000               
G19  20380342.763   107099417.357       -2156.521          43.000               
G09  18862540.016    99123310.451        1575.677          43.000               
C19  20429947.927   106384112.797         524.465          40.000               
C11  24744761.428   128852465.764       -3655.144          19.000               
C07  38286816.412   199369527.445        -488.495          26.000               
C31  22543390.372   117389300.254        1940.982          35.000               
C37  24510777.235   127634048.496        1633.542          26.000               
R23  19242474.136   102934195.322       -3586.609          32.000               
E09  22044114.259   115842594.215        -375.676          38.000               
G06  19555276.031   102763666.928        1353.020          43.000               
G11  22369299.185   117551443.627        3245.935          34.000               
E05  23343634.744   122671613.733        2287.556          35.000               
C22  23245685.311   121046399.384        2688.335          29.000               
E34  23012796.520   120933030.737        1727.507          33.000               
E36  22054844.101   115899021.744        -987.002          37.000               
E06  23043006.962   121091833.636       -1700.619          38.000               
E14  17132689.492    90032846.483       -2157.320          34.000               
> 2026 05 04 17 30 24.9950000  0 33                                             
G17  22166022.955   116483285.766       -3144.366          32.000               
G04  18906935.301    99356596.823        -684.290          40.000               
E11  23520833.858   123602808.710       -2858.510          32.000               
G01  22919287.226   120441667.129       -3772.514          21.000               
C20  21408291.236   111478593.159       -2076.312          40.000               
C29  22765466.894   118545730.359       -3379.952          32.000               
C10  38411022.453   200016275.446         -19.854          33.000               
C23  25004933.446   130207207.186        -589.396          32.000               
C12  20032586.337   104314931.848       -1058.370          38.000               
C35  21049129.568   109608353.017        -807.653          36.000               
R24  18359767.861    98177924.290        1457.370          37.000               
R16  22312406.997   119188846.947       -1746.143          37.000               
R01  18656039.142    99727221.451        2074.106          36.000               
G03  20370434.694   107047362.753       -2747.903          38.000               
E04  24902040.441   130861105.514       -2667.479          24.000               
G31  22110258.769   116190206.845       -1944.704          32.000               
G19  20380753.212   107101574.326       -2157.541          43.000               
G09  18862240.345    99121735.390        1574.683          43.000               
C19  20429847.403   106383588.898         523.332          40.000               
C11  24745461.734   128856112.033       -3637.586          19.000               
C07  38286909.261   199370016.453        -489.957          26.000               
C31  22543017.705   117387359.738        1940.652          35.000               
C37  24510463.339   127632414.297        1632.936          26.000               
R23  19243144.770   102937782.780       -3588.166          32.000               
E09  22044185.837   115842970.409        -376.323          38.000               
G06  19555018.672   102762314.564        1352.002          43.000               
G11  22368681.645   117548198.796        3244.305          34.000               
E05  23343199.837   122669326.504        2286.908          35.000               
C22  23245168.896   121043711.353        2687.982          30.000               
E34  23012467.714   120931303.379        1727.007          32.000               
E36  22055032.019   115900009.287        -987.839          37.000               
E06  23043330.585   121093534.614       -1701.397          38.000               
E14  17133100.347    90035004.994       -2159.477          34.000               
> 2026 05 04 17 30 25.9950000  0 33                                             
G17  22166621.573   116486430.062       -3143.762          32.000               
G04  18907065.467    99357281.292        -684.540          40.000               
E11  23521378.119   123605667.176       -2858.554          32.000               
G01  22920005.154   120445439.165       -3776.454          20.000               
C20  21408689.913   111480669.149       -2075.707          40.000               
C29  22766115.978   118549109.456       -3379.011          31.000               
C10  38411026.313   200016295.576         -19.406          32.000               
C23  25005046.389   130207796.345        -588.788          31.000               
C12  20032789.679   104315990.431       -1058.600          38.000               
C35  21049284.826   109609160.610        -807.393          36.000               
R24  18359495.385    98176467.152        1457.044          37.000               
R16  22312733.869   119190593.036       -1746.515          36.000               
R01  18655651.089    99725147.326        2073.781          36.000               
G03  20370957.701   107050110.607       -2748.100          38.000               
E04  24902546.306   130863763.860       -2664.812          25.000               
G31  22110628.620   116192151.098       -1944.484          32.000               
G19  20381163.851   107103731.867       -2157.658          43.000               
G09  18861940.681    99120160.878        1574.147          43.000               
C19  20429746.665   106383065.347         523.558          40.000               
C11  24746162.428   128859760.805       -3642.085          20.000               
C07  38287005.623   199370505.657        -489.507          26.000               
C31  22542645.190   117385419.734        1939.201          35.000               
C37  24510150.210   127630783.580        1632.599          26.000               
R23  19243815.687   102941370.796       -3588.971          32.000               
E09  22044257.468   115843347.066        -376.710          38.000               
G06  19554761.466   102760962.724        1351.863          43.000               
G11  22368064.139   117544954.054        3244.812          34.000               
E05  23342764.684   122667039.584        2287.052          35.000               
C22  23244652.654   121041023.528        2687.591          30.000               
E34  23012139.089   120929576.315        1727.250          32.000               
E36  22055220.013   115900997.237        -987.950          37.000               
E06  23043654.498   121095235.958       -1701.620          38.000               
E14  17133511.738    90037164.694       -2160.584          34.000               
> 2026 05 04 17 30 26.9950000  0 33                                             
G17  22167220.023   116489574.385       -3144.100          32.000               
G04  18907195.759    99357966.120        -685.133          40.000               
E11  23521922.065   123608525.574       -2858.545          32.000               
G01  22920723.570   120449215.243       -3781.122          19.000               
C20  21409088.735   111482745.204       -2076.255          40.000               
C29  22766764.752   118552488.571       -3378.593          31.000               
C10  38411030.086   200016315.723         -20.339          32.000               
C23  25005159.727   130208385.857        -589.624          32.000               
C12  20032992.849   104317049.126       -1058.910          38.000               
C35  21049440.094   109609968.586        -808.177          36.000               
R24  18359222.934    98175010.552        1456.875          37.000               
R16  22313060.772   119192339.598       -1746.777          35.000               
R01  18655263.019    99723073.465        2073.620          36.000               
G03  20371480.653   107052858.438       -2747.838          39.000               
E04  24903053.729   130866430.341       -2664.806          26.000               
G31  22110998.645   116194095.778       -1944.664          32.000               
G19  20381574.453   107105889.784       -2158.322          43.000               
G09  18861641.066    99118586.685        1573.826          43.000               
C19  20429646.061   106382542.003         523.257          40.000               
C11  24746861.767   128863403.206       -3645.664          19.000               
C07  38287099.723   199370994.764        -489.064          27.000               
C31  22542272.637   117383479.868        1939.409          35.000               
C37  24509837.766   127629156.993        1632.249          27.000               
R23  19244486.687   102944959.143       -3588.623          32.000               
E09  22044329.284   115843723.924        -376.967          38.000               
G06  19554504.381   102759611.207        1351.250          43.000               
G11  22367446.675   117541709.327        3244.733          34.000               
E05  23342329.493   122664752.710        2286.702          34.000               
C22  23244136.153   121038335.640        2687.139          30.000               
E34  23011810.421   120927849.250        1727.107          31.000               
E36  22055408.038   115901985.324        -988.360          37.000               
E06  23043978.241   121096937.398       -1701.469          38.000               
E14  17133923.162    90039325.462       -2161.610          34.000               
> 2026 05 04 17 30 27.9950000  0 32                                             
G17  22167818.538   116492718.873       -3144.946          32.000               
G04  18907326.208    99358651.470        -685.524          40.000               
E11  23522466.656   123611384.030       -2858.174          32.000               
G01  22921443.243   120452996.459       -3788.310          18.000               
C20  21409487.308   111484821.418       -2075.940          40.000               
C29  22767413.955   118555867.844       -3379.183          32.000               
C10  38411033.924   200016335.918         -19.828          33.000               
C23  25005272.891   130208975.842        -589.012          31.000               
C12  20033196.254   104318108.087       -1058.822          39.000               
C35  21049595.364   109610777.069        -808.511          36.000               
R24  18358950.697    98173554.771        1455.817          37.000               
R16  22313387.916   119194086.882       -1747.357          35.000               
R01  18654875.050    99721000.122        2072.755          36.000               
G03  20372003.687   107055606.473       -2747.954          39.000               
E04  24903561.628   130869098.842       -2664.964          26.000               
G31  22111368.828   116196041.039       -1945.339          32.000               
G19  20381985.180   107108048.193       -2158.390          43.000               
G09  18861341.511    99117012.973        1573.561          43.000               
C19  20429545.553   106382018.931         523.238          40.000               
C11  24747561.019   128867044.356       -3657.532          19.000               
C07  38287194.099   199371484.002        -488.809          27.000               
C31  22541900.218   117381540.395        1939.447          34.000               
C37  24509523.564   127627520.765        1632.309          26.000               
E09  22044401.174   115844101.160        -377.374          38.000               
G06  19554247.226   102758260.145        1351.059          43.000               
G11  22366829.281   117538464.722        3244.879          34.000               
E05  23341894.543   122662466.080        2286.665          34.000               
C22  23243619.902   121035647.800        2688.159          30.000               
E34  23011481.760   120926122.406        1727.164          32.000               
E36  22055596.065   115902973.716        -987.997          37.000               
E06  23044301.958   121098639.123       -1701.742          38.000               
E14  17134334.886    90041487.439       -2162.698          34.000               
> 2026 05 04 17 30 28.9950000  0 31                                             
G17  22168416.604   116495863.557       -3144.932          31.000               
G04  18907456.701    99359337.382        -685.849          40.000               
E11  23523010.506   123614242.677       -2858.663          32.000               
G01  22922161.751   120456772.710       -3771.078          17.000               
C20  21409885.933   111486897.859       -2076.522          40.000               
C29  22768063.214   118559247.287       -3379.366          31.000               
C10  38411037.950   200016356.298         -20.201          33.000               
C23  25005386.179   130209566.338        -590.501          32.000               
C12  20033399.761   104319167.407       -1059.336          39.000               
C35  21049750.723   109611586.211        -809.637          36.000               
R24  18358678.633    98172099.860        1454.583          38.000               
R01  18654487.080    99718927.328        2072.626          35.000               
G03  20372526.692   107058354.670       -2748.525          39.000               
E04  24904066.673   130871753.501       -2664.934          26.000               
G31  22111739.105   116197986.846       -1946.254          32.000               
G19  20382396.066   107110207.297       -2159.520          43.000               
G09  18861042.165    99115439.819        1573.007          43.000               
C19  20429445.215   106381496.279         522.724          40.000               
C11  24748261.397   128870690.762       -3640.924          18.000               
C07  38287289.826   199371973.499        -489.766          28.000               
C31  22541527.661   117379601.423        1939.417          33.000               
C37  24509210.826   127625891.881        1632.089          26.000               
E09  22044473.102   115844478.808        -377.545          39.000               
G06  19553990.236   102756909.695        1350.313          43.000               
G11  22366211.883   117535220.405        3244.171          33.000               
E05  23341459.551   122660179.779        2286.681          35.000               
C22  23243103.612   121032960.405        2687.089          30.000               
E34  23011153.122   120924395.904        1726.175          32.000               
E36  22055784.025   115903962.515        -988.782          37.000               
E06  23044625.822   121100341.149       -1702.125          38.000               
E14  17134747.050    90043650.745       -2163.945          34.000               
> 2026 05 04 17 30 29.9950000  0 30                                             
G04  18907587.244    99360023.811        -687.116          39.000               
E11  23523554.770   123617101.305       -2858.603          31.000               
G01  22922879.122   120460542.120       -3782.324          16.000               
C20  21410284.670   111488974.437       -2076.887          41.000               
C29  22768712.100   118562626.906       -3379.590          29.000               
C10  38411041.977   200016376.768         -20.477          34.000               
C23  25005499.798   130210157.272        -591.113          33.000               
C12  20033603.291   104320226.933       -1059.791          39.000               
C35  21049906.094   109612395.921        -810.332          36.000               
R24  18358406.703    98170645.846        1453.281          35.000               
R01  18654099.443    99716855.230        2071.390          34.000               
G03  20373049.638   107061102.917       -2748.332          39.000               
E04  24904571.740   130874407.149       -2664.001          26.000               
G31  22112109.646   116199933.163       -1946.803          39.000               
G19  20382807.041   107112367.086       -2160.376          42.000               
G09  18860742.728    99113867.246        1572.039          41.000               
C19  20429344.955   106380974.017         521.961          40.000               
C11  24748959.226   128874325.053       -3642.144          21.000               
C07  38287388.069   199372463.150        -490.654          33.000               
C31  22541155.479   117377663.108        1937.862          32.000               
C37  24508896.111   127624252.974        1632.081          26.000               
E09  22044545.059   115844856.815        -378.559          39.000               
G06  19553733.310   102755559.825        1349.054          42.000               
G11  22365594.652   117531976.371        3244.226          33.000               
E05  23341024.887   122657893.816        2285.619          36.000               
C22  23242587.675   121030273.165        2686.815          37.000               
E34  23010824.366   120922669.722        1725.707          30.000               
E36  22055971.639   115904951.626        -989.387          35.000               
E06  23044949.457   121102043.347       -1702.322          37.000               
E14  17135158.205    90045815.482       -2165.920          34.000               
> 2026 05 04 17 30 30.9950000  0 26                                             
G04  18907717.867    99360710.559        -686.903          38.000               
E11  23524098.735   123619959.790       -2858.438          32.000               
C20  21410683.424   111491050.976       -2076.346          41.000               
C29  22769360.610   118566006.544       -3379.145          29.000               
C10  38411046.093   200016397.157         -20.561          30.000               
C23  25005613.314   130210748.521        -591.271          28.000               
C12  20033806.712   104321286.619       -1059.717          39.000               
C35  21050061.733   109613206.247        -810.632          37.000               
G03  20373572.606   107063851.012       -2747.867          38.000               
E04  24905074.395   130877049.040       -2665.677          26.000               
G31  22112480.104   116201879.743       -1947.007          35.000               
G19  20383218.198   107114527.567       -2160.750          40.000               
G09  18860443.468    99112295.154        1571.538          41.000               
C19  20429244.931   106380452.146         521.452          42.000               
C11  24749660.803   128877978.286       -3641.182          20.000               
C31  22540783.353   117375725.175        1938.149          36.000               
C37  24508580.765   127622611.541        1630.669          25.000               
E09  22044616.979   115845235.054        -378.404          38.000               
G06  19553476.567   102754210.591        1349.171          39.000               
G11  22364977.391   117528732.729        3243.091          33.000               
E05  23340590.268   122655608.094        2286.005          36.000               
C22  23242071.902   121027586.219        2686.579          37.000               
E34  23010496.049   120920943.820        1726.267          30.000               
E36  22056159.963   115905940.990        -989.238          36.000               
E06  23045273.259   121103745.622       -1702.145          37.000               
E14  17135569.977    90047981.467       -2166.275          35.000               
> 2026 05 04 17 30 31.9950000  0 27                                             
G04  18907848.654    99361397.683        -687.835          39.000               
E11  23524642.227   123622817.854       -2857.491          31.000               
C20  21411082.159   111493127.267       -2076.270          41.000               
C29  22770009.722   118569415.368       -3380.124          33.000               
C10  38411049.735   200016417.081         -20.409          29.000               
C23  25005726.879   130211339.919        -591.648          32.000               
C12  20034010.210   104322346.453       -1059.174          39.000               
C35  21050217.642   109614017.447        -811.901          37.000               
R01  18653324.796    99712710.854        2069.592          36.000               
G03  20374095.503   107066598.846       -2747.426          38.000               
E04  24905577.369   130879691.854       -2662.966          25.000               
G31  22112850.780   116203826.617       -1945.918          32.000               
G19  20383629.621   107116688.953       -2161.957          43.000               
G09  18860144.503    99110723.544        1570.966          41.000               
C19  20429144.777   106379930.649         520.675          42.000               
C11  24750359.260   128881615.015       -3637.659          21.000               
C31  22540411.423   117373787.962        1937.538          34.000               
C37  24508264.837   127620965.918        1631.746          22.000               
E09  22044688.854   115845613.344        -378.411          37.000               
G06  19553220.066   102752861.928        1347.710          39.000               
G11  22364360.198   117525489.382        3242.883          30.000               
E05  23340155.304   122653322.609        2284.847          38.000               
C22  23241556.244   121024899.845        2686.241          37.000               
E34  23010167.944   120919218.401        1724.715          34.000               
E36  22056348.406   115906930.391        -989.759          36.000               
E06  23045597.180   121105447.777       -1701.834          37.000               
E14  17135982.419    90050149.051       -2168.480          36.000               
> 2026 05 04 17 30 32.9950000  0 28                                             
G04  18907979.419    99362084.989        -687.736          39.000               
E11  23525186.212   123625675.433       -2857.105          32.000               
C20  21411480.983   111495203.369       -2076.030          42.000               
C29  22770657.275   118572795.046       -3380.474          35.000               
C10  38411053.075   200016436.647         -18.805          34.000               
C23  25005840.554   130211931.282        -592.816          33.000               
C12  20034213.543   104323406.289       -1059.739          37.000               
C35  21050373.722   109614829.500        -812.643          36.000               
R01  18652937.457    99710640.989        2068.791          36.000               
G03  20374618.384   107069346.179       -2747.448          39.000               
E04  24906081.917   130882343.478       -2663.762          31.000               
G31  22113221.041   116205760.514       -1947.199          36.000               
G19  20384041.204   107118851.411       -2161.873          43.000               
G09  18859845.550    99109152.496        1570.603          40.000               
C19  20429044.769   106379409.646         520.474          39.000               
C11  24751059.275   128885260.520       -3640.667          21.000               
C07  38287671.830   199373954.519        -491.993          29.000               
C31  22540038.990   117371897.044        1935.099          31.000               
C37  24507951.323   127619333.193        1623.641          21.000               
E09  22044761.195   115845991.750        -378.273          40.000               
G06  19552963.564   102751514.144        1346.316          35.000               
G11  22363744.548   117522270.702        3242.346          28.000               
E05  23339719.994   122651037.581        2283.997          36.000               
C22  23241040.586   121022214.200        2685.922          37.000               
E34  23009839.956   120917493.766        1724.652          36.000               
E36  22056536.633   115907920.033        -989.842          37.000               
E06  23045921.046   121107149.841       -1702.485          35.000               
E14  17136395.450    90052318.402       -2170.214          38.000               
> 2026 05 04 17 30 33.9950000  0 29                                             
G17  22171405.581   116511522.287       -3145.797          25.000               
G04  18908110.168    99362772.668        -689.202          36.000               
E11  23525730.300   123628532.658       -2856.293          33.000               
C20  21411879.564   111497279.299       -2075.767          40.000               
C29  22771303.210   118576175.193       -3382.348          31.000               
C10  38411056.701   200016456.038         -19.664          35.000               
C23  25005954.534   130212523.045        -592.246          35.000               
C12  20034417.082   104324466.345       -1060.667          38.000               
C35  21050529.919   109615642.507        -812.399          37.000               
R01  18652550.548    99708572.182        2066.544          34.000               
G03  20375141.171   107072093.098       -2746.044          39.000               
E04  24906580.354   130884963.112       -2665.689          30.000               
G31  22113591.965   116207707.653       -1947.916          40.000               
G19  20384452.827   107121014.978       -2163.958          41.000               
G09  18859546.694    99107582.120        1570.576          41.000               
C19  20428944.824   106378889.196         520.096          41.000               
C11  24751761.819   128888918.854       -3633.682          23.000               
C07  38287768.776   199374442.912        -489.142          37.000               
C31  22539666.640   117369958.482        1932.117          31.000               
C37  24507637.254   127617698.370        1636.276          21.000               
E09  22044833.182   115846370.302        -379.606          39.000               
G06  19552707.189   102750167.311        1344.801          39.000               
G11  22363129.620   117519039.173        3240.486          27.000               
E05  23339285.093   122648752.919        2284.819          36.000               
C22  23240525.116   121019529.516        2684.276          37.000               
E34  23009512.147   120915769.679        1723.160          34.000               
E36  22056724.859   115908909.872        -990.010          36.000               
E06  23046245.175   121108851.866       -1702.490          38.000               
E14  17136808.848    90054489.485       -2171.735          38.000               
> 2026 05 04 17 30 34.9950000  0 28                                             
G04  18908240.850    99363460.668        -688.399          39.000               
E11  23526273.848   123631389.529       -2856.904          33.000               
C20  21412278.265   111499355.226       -2077.791          36.000               
C29  22771954.436   118579541.620       -3380.996          27.000               
C10  38411060.260   200016475.126         -17.194          30.000               
C23  25006068.642   130213161.317        -594.054          27.000               
C12  20034620.612   104325526.612       -1060.565          41.000               
C35  21050686.146   109616456.579        -815.076          40.000               
R01  18652163.691    99706504.214        2066.488          36.000               
G03  20375663.873   107074839.767       -2746.076          38.000               
E04  24907086.406   130887622.309       -2665.362          34.000               
G31  22113964.972   116209654.843       -1944.731          32.000               
G19  20384864.732   107123179.679       -2165.110          42.000               
G09  18859248.029    99106012.503        1569.345          41.000               
C19  20428845.081   106378369.277         519.400          41.000               
C11  24752462.792   128892569.107       -3642.512          22.000               
C07  38287863.786   199374931.693        -487.713          31.000               
C31  22539294.549   117368021.280        1931.389          37.000               
C37  24507323.399   127616063.372        1632.160          24.000               
E09  22044905.427   115846748.973        -378.902          40.000               
G06  19552451.085   102748821.266        1345.040          41.000               
G11  22362513.404   117515800.339        3238.696          31.000               
E05  23338850.324   122646468.801        2283.194          35.000               
C22  23240009.771   121016845.538        2683.401          37.000               
E34  23009185.447   120914085.096        1721.013          29.000               
E36  22056913.826   115909899.943        -991.278          38.000               
E06  23046569.084   121110553.568       -1701.891          35.000               
E14  17137222.226    90056662.363       -2173.883          36.000               
> 2026 05 04 17 30 35.9950000  0 28                                             
G17  22172610.136   116517852.235       -3146.367          26.000               
G04  18908371.768    99364149.091        -688.904          39.000               
E11  23526817.626   123634245.752       -2856.724          33.000               
C20  21412676.839   111501430.586       -2074.630          36.000               
C29  22772602.266   118582915.815       -3383.093          19.000               
C10  38411064.006   200016489.228         -22.069          29.000               
C23  25006184.446   130213764.229        -595.892          25.000               
C12  20034824.220   104326587.041       -1061.084          42.000               
C35  21050842.822   109617271.856        -817.074          36.000               
G03  20376186.470   107077585.831       -2746.021          36.000               
E04  24907593.541   130890286.136       -2664.250          31.000               
G31  22114334.923   116211613.648       -1944.213          31.000               
G19  20385276.951   107125345.967       -2167.352          41.000               
G09  18858949.473    99104443.701        1567.986          43.000               
C19  20428745.415   106377850.160         519.007          42.000               
C11  24753162.602   128896213.346       -3634.026          23.000               
C07  38287960.715   199375458.157        -491.124          31.000               
C31  22538925.622   117366088.406        1932.618          36.000               
C37  24507009.739   127614430.525        1631.490          29.000               
E09  22044977.602   115847127.835        -378.340          37.000               
G06  19552195.163   102747476.310        1345.435          39.000               
G11  22361892.969   117512540.252        3239.154          27.000               
E05  23338415.655   122644185.343        2282.799          35.000               
C22  23239494.756   121014162.890        2682.510          37.000               
E34  23008860.473   120912377.199        1720.070          28.000               
E36  22057102.472   115910890.296        -990.418          38.000               
E06  23046892.742   121112255.203       -1701.352          35.000               
E14  17137636.128    90058837.573       -2176.623          35.000               
> 2026 05 04 17 30 36.9950000  0 29                                             
G17  22173212.290   116521016.606       -3146.367          26.000               
G04  18908502.787    99364837.902        -688.672          40.000               
E11  23527360.960   123637101.679       -2855.979          33.000               
G01  22927906.188   120486959.911       -3774.477          24.000               
C20  21413075.365   111503506.154       -2074.661          36.000               
C29  22773251.829   118586298.397       -3378.864          29.000               
C10  38411067.884   200016509.839         -18.959          35.000               
C23  25006297.396   130214351.985        -593.540          31.000               
C12  20035027.726   104327647.608       -1060.939          39.000               
C35  21050999.591   109618088.299        -815.682          36.000               
G03  20376708.948   107080331.501       -2743.785          36.000               
E04  24908099.788   130892949.716       -2663.855          35.000               
G31  22114706.488   116213566.076       -1949.010          37.000               
G19  20385689.397   107127513.501       -2168.978          41.000               
G09  18858651.088    99102875.623        1567.051          43.000               
C19  20428645.844   106377331.726         517.292          39.000               
C11  24753862.700   128899858.159       -3656.907          22.000               
C07  38288050.107   199375924.155        -488.284          26.000               
C31  22538555.009   117364156.442        1935.347          36.000               
C37  24506694.218   127612787.533        1624.439          23.000               
E09  22045049.715   115847507.052        -379.192          38.000               
G06  19551939.401   102746132.584        1343.554          41.000               
G11  22361278.229   117509309.341        3238.116          31.000               
E05  23337981.295   122641902.429        2282.453          37.000               
C22  23238979.944   121011481.102        2682.063          37.000               
E34  23008530.538   120910643.200        1723.690          29.000               
E36  22057291.247   115911881.075        -991.625          36.000               
E06  23047216.899   121113956.924       -1701.217          35.000               
E14  17138050.415    90061014.517       -2177.297          35.000               
> 2026 05 04 17 30 37.9950000  0 28                                             
G04  18908633.955    99365527.128        -688.832          36.000               
E11  23527905.595   123639978.365       -2856.589          31.000               
G01  22928619.008   120490705.231       -3774.414          30.000               
C20  21413474.068   111505581.697       -2076.088          36.000               
C29  22773899.903   118589672.250       -3381.690          34.000               
C10  38411071.235   200016527.341         -20.126          39.000               
C23  25006411.816   130214947.510        -595.066          27.000               
C12  20035231.474   104328708.424       -1060.391          41.000               
C35  21051156.643   109618905.609        -818.477          38.000               
G03  20377231.485   107083077.045       -2744.045          33.000               
E04  24908603.968   130895613.309       -2664.538          28.000               
G31  22115077.668   116215513.692       -1948.271          36.000               
G19  20386102.088   107129682.131       -2169.502          41.000               
G09  18858352.886    99101308.197        1566.369          41.000               
C19  20428546.524   106376813.819         518.390          42.000               
C11  24754563.161   128903506.402       -3638.239          21.000               
C07  38288141.698   199376401.030        -484.542          35.000               
C31  22538186.711   117362252.473        1936.279          33.000               
C37  24506378.373   127611143.074        1632.517          29.000               
E09  22045121.976   115847886.408        -379.177          38.000               
G06  19551683.832   102744789.574        1343.026          41.000               
G11  22360662.641   117506074.830        3243.488          31.000               
E05  23337546.946   122639620.022        2282.736          35.000               
C22  23238465.165   121008800.119        2679.913          37.000               
E34  23008201.421   120908913.571        1721.551          34.000               
E36  22057479.661   115912872.056        -991.236          38.000               
E06  23047540.856   121115658.686       -1702.403          35.000               
E14  17138464.931    90063193.334       -2180.078          37.000               
> 2026 05 04 17 30 38.9950000  0 31                                             
G17  22174406.763   116527293.703       -3148.180          27.000               
G04  18908765.153    99366217.157        -690.636          39.000               
E11  23528445.302   123642834.267       -2855.350          29.000               
G01  22929338.814   120494488.285       -3771.350          26.000               
C20  21413874.463   111507663.049       -2077.465          33.000               
C29  22774548.561   118593050.016       -3381.910          33.000               
C10  38411071.627   200016545.423         -18.310          32.000               
C23  25006525.038   130215538.018        -594.785          32.000               
C12  20035435.258   104329769.961       -1062.205          41.000               
C35  21051313.917   109619724.166        -818.676          36.000               
R24  18355977.725    98157661.599        1440.940          34.000               
R08  18074721.704    96789313.129       -1693.252          34.000               
G03  20377753.989   107085822.751       -2746.002          38.000               
E04  24909115.215   130898276.728       -2662.638          35.000               
G31  22115447.620   116217462.352       -1951.873          32.000               
G19  20386514.971   107131852.056       -2171.405          40.000               
G09  18858054.705    99099741.780        1566.385          41.000               
C19  20428447.295   106376296.905         516.127          40.000               
C11  24755262.900   128907149.265       -3642.410          20.000               
C07  38288234.970   199376886.124        -488.772          31.000               
C31  22537814.236   117360312.731        1929.014          35.000               
C37  24506063.503   127609502.859        1633.273          30.000               
E09  22045194.504   115848266.491        -380.479          36.000               
G06  19551428.481   102743447.694        1341.295          40.000               
G11  22360045.550   117502832.323        3236.144          31.000               
E05  23337112.716   122637338.380        2280.291          35.000               
C22  23237950.679   121006120.132        2679.841          37.000               
E34  23007877.656   120907193.564        1720.461          34.000               
E36  22057668.370   115913863.812        -992.435          37.000               
E06  23047865.796   121117351.501       -1700.655          27.000               
E14  17138880.516    90065374.104       -2182.540          37.000               
> 2026 05 04 17 30 39.9950000  0 31                                             
G17  22174998.410   116530402.619       -3151.447          27.000               
G04  18908896.485    99366907.607        -691.187          38.000               
E11  23528988.924   123645689.943       -2855.743          32.000               
G01  22930057.863   120498266.895       -3774.389          26.000               
C20  21414272.986   111509738.770       -2073.631          38.000               
C29  22775195.263   118596431.262       -3379.283          38.000               
C10  38411078.469   200016565.126         -17.961          35.000               
C23  25006641.548   130216143.969        -594.995          26.000               
C12  20035639.015   104330831.505       -1061.277          39.000               
C35  21051471.335   109620543.396        -819.575          37.000               
R24  18355702.164    98156218.767        1441.993          40.000               
R08  18075034.030    96791007.718       -1694.917          32.000               
G03  20378276.526   107088568.288       -2745.266          36.000               
E04  24909617.767   130900924.120       -2662.595          32.000               
G31  22115819.355   116219414.902       -1948.969          36.000               
G19  20386927.928   107134022.667       -2171.428          39.000               
G09  18857756.681    99098175.832        1565.355          42.000               
C19  20428348.043   106375780.216         517.322          40.000               
C11  24755961.564   128910787.392       -3642.201          23.000               
C07  38288329.036   199377376.634        -488.281          32.000               
C31  22537442.892   117358378.945        1930.255          38.000               
C37  24505751.812   127607880.100        1630.607          29.000               
E09  22045266.914   115848646.716        -381.130          38.000               
G06  19551173.228   102742106.443        1341.300          42.000               
G11  22359428.378   117499588.766        3238.110          35.000               
E05  23336678.739   122635056.910        2281.619          39.000               
C22  23237436.064   121003440.325        2680.019          36.000               
E34  23007547.092   120905473.862        1720.406          30.000               
E36  22057857.066   115914855.692        -992.765          38.000               
E06  23048193.320   121119072.796       -1702.529          28.000               
E14  17139295.658    90067556.160       -2181.920          36.000               
> 2026 05 04 17 30 40.9950000  0 30                                             
G17  22175599.229   116533560.074       -3150.016          28.000               
G04  18909027.900    99367598.491        -690.198          39.000               
E11  23529531.273   123648545.704       -2855.691          30.000               
G01  22930776.187   120502041.203       -3770.607          26.000               
C20  21414669.995   111511805.661       -2074.528          31.000               
C29  22775846.358   118599812.887       -3382.378          41.000               
C10  38411080.913   200016577.822         -15.970          27.000               
C23  25006752.337   130216721.590        -592.564          27.000               
C12  20035842.873   104331893.414       -1061.138          39.000               
C35  21051628.751   109621363.361        -819.735          36.000               
R24  18355428.993    98154777.096        1440.721          38.000               
G03  20378798.889   107091313.658       -2741.213          29.000               
E04  24910130.227   130903616.946       -2672.136          24.000               
G31  22116190.310   116221364.720       -1952.821          29.000               
G19  20387341.167   107136194.080       -2171.766          41.000               
G09  18857458.837    99096610.574        1564.793          43.000               
C19  20428248.985   106375263.988         516.362          43.000               
C11  24756655.889   128914403.686       -3639.651          23.000               
C07  38288420.161   199377850.775        -486.244          31.000               
C31  22537070.378   117356439.324        1927.470          40.000               
C37  24505435.994   127606235.085        1637.099          30.000               
E09  22045339.162   115849027.299        -381.295          38.000               
G06  19550918.091   102740765.779        1341.212          39.000               
G11  22358811.992   117496352.363        3235.748          35.000               
E05  23336244.520   122632775.944        2280.785          36.000               
C22  23236921.632   121000761.074        2677.974          37.000               
E34  23007218.289   120903754.599        1719.571          38.000               
E36  22058046.031   115915847.818        -992.125          35.000               
E06  23048515.702   121120767.115       -1745.293          26.000               
E14  17139711.189    90069739.731       -2185.313          36.000               
> 2026 05 04 17 30 41.9950000  0 30                                             
G17  22176199.258   116536712.669       -3152.055          33.000               
G04  18909159.489    99368290.025        -691.077          37.000               
E11  23530078.298   123651401.494       -2856.148          30.000               
G01  22931495.605   120505822.561       -3774.066          25.000               
C20  21415070.925   111513893.638       -2073.296          32.000               
C29  22776494.012   118603194.722       -3382.882          39.000               
C10  38411083.527   200016591.027         -20.585          27.000               
C23  25006868.364   130217325.837        -596.551          32.000               
C12  20036046.883   104332955.726       -1062.280          37.000               
C35  21051786.370   109622184.070        -822.426          34.000               
R24  18355159.148    98153336.408        1439.431          40.000               
G03  20379319.023   107094043.652       -2744.684          38.000               
E04  24910637.722   130906283.975       -2662.228          25.000               
G31  22116564.395   116223330.175       -1953.186          31.000               
G19  20387754.562   107138366.302       -2172.512          42.000               
G09  18857161.153    99095045.911        1564.295          43.000               
C19  20428149.998   106374748.324         516.292          39.000               
C11  24757354.338   128918040.233       -3640.503          24.000               
C07  38288515.088   199378344.942        -489.114          30.000               
C31  22536702.547   117354511.445        1928.755          37.000               
C37  24505121.553   127604597.581        1633.055          28.000               
E09  22045411.534   115849408.443        -382.716          37.000               
G06  19550663.117   102739425.979        1339.996          40.000               
G11  22358194.735   117493116.292        3236.438          31.000               
E05  23335810.654   122630495.378        2279.729          39.000               
C22  23236407.247   120998082.178        2678.269          36.000               
E34  23006888.757   120902035.917        1717.468          36.000               
E36  22058234.864   115916840.589        -993.590          36.000               
E06  23048837.603   121122458.771       -1701.589          35.000               
E14  17140127.008    90071924.782       -2185.831          35.000               
> 2026 05 04 17 30 42.9950000  0 29                                             
G17  22176799.866   116539869.825       -3151.897          38.000               
G04  18909291.230    99368982.273        -692.206          40.000               
E11  23530621.357   123654257.296       -2855.822          29.000               
G01  22932213.319   120509593.687       -3787.162          23.000               
C20  21415472.095   111515982.988       -2074.316          36.000               
C29  22777143.808   118606576.798       -3383.005          38.000               
C10  38411088.613   200016617.795         -21.171          27.000               
C23  25006982.104   130217917.326        -596.590          26.000               
C12  20036250.985   104334018.396       -1063.422          38.000               
C35  21051944.156   109623005.738        -823.283          37.000               
R24  18354889.479    98151896.956        1438.155          38.000               
G03  20379842.695   107096796.014       -2745.745          39.000               
E04  24911138.803   130908917.508       -2673.312          26.000               
G19  20388168.060   107140539.517       -2173.230          42.000               
G09  18856863.547    99093481.998        1563.223          42.000               
C19  20428051.050   106374233.322         513.715          40.000               
C11  24758049.532   128921660.449       -3640.454          24.000               
C07  38288609.044   199378834.799        -490.912          24.000               
C31  22536331.391   117352584.852        1924.047          32.000               
C37  24504808.039   127602965.321        1633.012          28.000               
E09  22045484.228   115849789.910        -382.052          38.000               
G06  19550408.308   102738087.002        1339.093          40.000               
G11  22357577.274   117489881.112        3234.222          35.000               
E05  23335376.782   122628215.243        2280.096          37.000               
C22  23235893.111   120995403.966        2677.867          36.000               
E34  23006566.610   120900317.825        1716.938          36.000               
E36  22058423.912   115917833.559        -992.378          36.000               
E06  23049159.937   121124161.837       -1703.674          32.000               
E14  17140543.065    90074111.497       -2187.215          38.000               
> 2026 05 04 17 30 43.9950000  0 28                                             
G17  22177397.507   116543021.989       -3152.465          40.000               
G04  18909422.956    99369674.899        -693.465          38.000               
E11  23531165.329   123657113.113       -2855.289          29.000               
G01  22932930.587   120513362.839       -3774.430          24.000               
C20  21415868.983   111518049.475       -2077.345          34.000               
C29  22777793.289   118609959.046       -3382.843          38.000               
C10  38411092.647   200016638.547         -50.586          24.000               
C23  25007097.154   130218517.184        -596.200          26.000               
C12  20036455.246   104335081.320       -1062.836          37.000               
C35  21052102.152   109623827.901        -822.650          34.000               
G03  20380364.821   107099541.905       -2746.003          38.000               
E04  24911647.294   130911589.370       -2662.922          30.000               
G19  20388581.803   107142713.480       -2174.628          41.000               
G09  18856566.026    99091918.632        1562.255          42.000               
C19  20427952.036   106373718.588         514.193          41.000               
C11  24758749.636   128925305.995       -3644.376          23.000               
C07  38288701.445   199379315.364        -498.082          23.000               
C31  22535960.572   117350658.340        1927.884          34.000               
C37  24504493.257   127601326.076        1634.120          32.000               
E09  22045557.178   115850171.666        -380.807          38.000               
G06  19550153.635   102736748.646        1337.189          41.000               
G11  22356964.416   117486646.136        3233.197          32.000               
E05  23334943.305   122625935.498        2278.305          37.000               
C22  23235378.960   120992726.173        2676.034          33.000               
E34  23006239.337   120898600.070        1716.483          36.000               
E36  22058612.925   115918827.043        -992.622          34.000               
E06  23049483.949   121125864.639       -1700.779          31.000               
E14  17140959.286    90076299.647       -2189.226          39.000               
> 2026 05 04 17 30 44.9950000  0 28                                             
G17  22177996.764   116546174.940       -3152.941          40.000               
G04  18909554.956    99370368.425        -693.465          40.000               
E11  23531710.095   123659969.361       -2856.182          33.000               
G01  22933647.291   120517129.190       -3768.919          24.000               
C20  21416265.023   111520111.175       -2077.989          39.000               
C29  22778443.216   118613341.903       -3382.344          40.000               
C10  38411098.361   200016668.942         -18.335          30.000               
C23  25007216.302   130219136.811        -596.514          24.000               
C12  20036659.485   104336144.838       -1062.448          38.000               
C35  21052260.248   109624651.357        -824.213          36.000               
G03  20380889.079   107102288.287       -2746.815          38.000               
E04  24912157.982   130914273.485       -2669.375          24.000               
G19  20388995.759   107144888.617       -2176.629          40.000               
G09  18856268.703    99090356.240        1561.646          43.000               
C19  20427853.437   106373204.757         512.880          41.000               
C11  24759452.195   128928964.844       -3646.045          21.000               
C07  38288795.267   199379804.085        -488.437          25.000               
C31  22535588.745   117348724.265        1921.740          31.000               
C37  24504181.166   127599693.169        1630.365          28.000               
E09  22045630.222   115850554.227        -381.678          37.000               
G06  19549899.273   102735411.362        1336.170          38.000               
G11  22356347.589   117483411.711        3233.868          35.000               
E05  23334509.742   122623656.410        2278.577          37.000               
C22  23234864.695   120990048.998        2676.244          36.000               
E34  23005912.700   120896887.149        1717.297          30.000               
E36  22058802.510   115919821.183        -994.666          38.000               
E06  23049806.770   121127568.445       -1704.529          39.000               
E14  17141376.188    90078489.603       -2190.390          36.000               
> 2026 05 04 17 30 45.9950000  0 28                                             
G17  22178596.430   116549328.113       -3153.350          38.000               
G04  18909686.942    99371062.308        -694.087          38.000               
E11  23532251.887   123662825.384       -2854.549          29.000               
C20  21416662.729   111522188.029       -2076.908          40.000               
C29  22779092.995   118616724.765       -3381.913          38.000               
C10  38411102.203   200016688.523         -23.592          24.000               
C23  25007330.835   130219733.304        -597.621          25.000               
C12  20036863.768   104337208.623       -1064.915          40.000               
C35  21052418.531   109625475.293        -824.291          38.000               
R24  18354083.712    98147533.484        1435.590          37.000               
G03  20381413.017   107105034.436       -2746.006          38.000               
E04  24912660.428   130916914.069       -2665.620          31.000               
G19  20389409.786   107147064.404       -2176.614          40.000               
G09  18855971.445    99088794.348        1561.257          42.000               
C19  20427754.731   106372691.256         513.499          41.000               
C11  24760150.839   128932602.300       -3646.695          21.000               
C07  38288890.612   199380300.486        -491.585          31.000               
C31  22535220.321   117346804.894        1933.350          30.000               
C37  24503868.615   127598073.926        1630.848          28.000               
E09  22045703.190   115850937.001        -381.803          39.000               
G06  19549644.784   102734074.444        1336.598          38.000               
G11  22355733.074   117480169.798        3236.503          28.000               
E05  23334076.008   122621377.631        2278.099          39.000               
C22  23234350.595   120987372.124        2676.757          34.000               
E34  23005588.087   120895170.392        1716.455          32.000               
E36  22058991.694   115920815.620        -995.405          38.000               
E06  23050133.248   121129272.284       -1704.998          40.000               
E14  17141793.154    90080680.916       -2191.765          37.000               
> 2026 05 04 17 30 46.9950000  0 27                                             
G17  22179195.301   116552481.473       -3154.791          39.000               
G04  18909819.199    99371756.681        -695.515          40.000               
E11  23532795.584   123665681.497       -2856.091          31.000               
C20  21417063.179   111524264.795       -2075.646          39.000               
C29  22779742.681   118620107.848       -3383.451          40.000               
C10  38411104.941   200016702.362         -23.841          26.000               
C23  25007446.409   130220335.244        -594.169          24.000               
C12  20037068.129   104338272.566       -1064.807          37.000               
C35  21052576.818   109626299.713        -824.448          38.000               
G03  20381934.486   107107780.719       -2745.877          38.000               
E04  24913173.814   130919611.743       -2669.210          25.000               
G19  20389823.923   107149240.653       -2176.754          39.000               
G09  18855674.329    99087232.859        1560.403          43.000               
C19  20427656.212   106372178.022         512.264          40.000               
C11  24760852.994   128936258.723       -3631.793          21.000               
C07  38288991.479   199380825.549        -489.231          25.000               
C31  22534854.148   117344898.458        1924.320          37.000               
C37  24503551.685   127596423.811        1633.267          32.000               
E09  22045776.163   115851320.076        -383.177          38.000               
G06  19549390.473   102732738.086        1336.104          38.000               
G11  22355116.977   117476932.532        3232.928          32.000               
E05  23333642.460   122619098.994        2277.936          38.000               
C22  23233836.530   120984695.488        2676.072          33.000               
E34  23005262.783   120893471.330        1714.644          26.000               
E36  22059180.879   115921810.134        -994.796          36.000               
E06  23050457.459   121130976.075       -1704.420          36.000               
E14  17142210.390    90082873.376       -2192.952          38.000               
> 2026 05 04 17 30 47.9950000  0 32                                             
G17  22179795.901   116555635.142       -3153.073          39.000               
G04  18909951.485    99372451.704        -693.848          38.000               
E11  23533338.927   123668538.025       -2857.413          31.000               
G01  22935802.567   120528455.741       -3779.063          23.000               
C20  21417460.727   111526342.193       -2077.231          41.000               
C29  22780392.387   118623491.189       -3383.297          38.000               
C10  38411107.940   200016718.074         -20.406          27.000               
C23  25007561.021   130220931.992        -591.749          20.000               
C12  20037272.427   104339336.963       -1064.087          40.000               
C35  21052735.330   109627125.141        -826.511          37.000               
R16  22319973.399   119229291.184       -1763.125          33.000               
R01  18647150.540    99679705.838        2056.921          38.000               
G03  20382457.184   107110527.353       -2746.660          40.000               
E04  24913682.268   130922283.719       -2674.581          23.000               
G31  22118793.590   116235043.985       -1961.005          26.000               
G19  20390238.262   107151417.872       -2177.874          42.000               
G09  18855377.292    99085672.134        1560.713          42.000               
C19  20427557.874   106371665.335         512.922          42.000               
C11  24761550.767   128939892.429       -3641.113          21.000               
C07  38289085.372   199381314.636        -492.448          24.000               
C31  22534483.729   117342969.768        1932.734          26.000               
C37  24503237.232   127594785.759        1632.553          27.000               
R23  19258604.354   103020546.463       -3600.416          34.000               
E09  22045848.955   115851703.767        -384.045          38.000               
G06  19549136.347   102731402.448        1335.113          39.000               
G11  22354502.359   117473698.693        3231.689          32.000               
E05  23333208.901   122616820.953        2277.661          37.000               
C22  23233322.629   120982019.212        2674.788          33.000               
E34  23004933.484   120891740.640        1714.439          26.000               
E36  22059370.186   115922805.295        -995.356          36.000               
E06  23050782.438   121132680.548       -1704.205          37.000               
E14  17142627.996    90085067.395       -2194.284          39.000               
> 2026 05 04 17 30 48.9950000  0 31                                             
G17  22180396.840   116558789.126       -3153.457          40.000               
G04  18910083.856    99373147.169        -694.542          36.000               
E11  23533882.374   123671394.311       -2856.959          31.000               
G01  22936521.591   120532233.678       -3773.713          22.000               
C20  21417861.042   111528419.502       -2078.868          38.000               
C29  22781042.042   118626874.628       -3383.082          38.000               
C10  38411111.516   200016736.899         -24.886          25.000               
C23  25007676.776   130221535.013        -600.400          22.000               
C12  20037476.839   104340401.624       -1063.734          40.000               
C35  21052893.787   109627950.845        -825.934          37.000               
R24  18353278.859    98143229.939        1433.809          38.000               
R08  18077842.834    96806026.671       -1686.816          34.000               
R01  18646765.860    99677649.493        2056.916          36.000               
G03  20382979.741   107113273.527       -2748.568          36.000               
E04  24914189.517   130924949.576       -2663.010          25.000               
G31  22119164.269   116236992.558       -1954.428          32.000               
G19  20390652.690   107153595.595       -2177.854          40.000               
G09  18855080.375    99084111.894        1559.460          43.000               
C19  20427459.522   106371153.010         512.577          40.000               
C11  24762250.549   128943535.768       -3641.238          22.000               
C07  38289179.196   199381803.333        -488.326          25.000               
C31  22534115.450   117341052.272        1922.526          32.000               
C37  24502926.609   127593154.015        1632.104          35.000               
E09  22045922.284   115852087.654        -383.707          37.000               
G06  19548882.311   102730067.374        1334.912          41.000               
E05  23332775.200   122614543.069        2278.085          39.000               
C22  23232808.677   120979331.150        2676.298          33.000               
E34  23004603.800   120890008.247        1716.237          35.000               
E36  22059559.720   115923800.702        -995.898          38.000               
E06  23051106.915   121134385.094       -1704.409          39.000               
E14  17143045.631    90087262.710       -2196.002          36.000               
> 2026 05 04 17 30 49.9950000  0 31                                             
G17  22180997.139   116561942.406       -3153.770          40.000               
G04  18910216.336    99373842.983        -696.033          36.000               
E11  23534426.227   123674250.454       -2855.956          31.000               
G01  22937241.157   120536015.263       -3769.751          22.000               
C20  21418260.306   111530496.752       -2077.303          42.000               
C29  22781691.807   118630257.904       -3384.114          39.000               
C10  38411114.631   200016753.567         -19.407          30.000               
C23  25007795.112   130222150.973        -604.302          21.000               
C12  20037681.144   104341466.276       -1064.762          39.000               
C35  21053052.411   109628776.818        -826.204          35.000               
R24  18353010.718    98141796.438        1432.230          38.000               
R16  22320638.458   119232843.348       -1758.484          29.000               
R01  18646381.254    99675593.337        2056.216          36.000               
G03  20383502.564   107116028.833       -2747.927          31.000               
E04  24914690.718   130927613.968       -2664.792          31.000               
G31  22119535.768   116238944.610       -1957.439          27.000               
G19  20391067.081   107155773.602       -2178.470          42.000               
G09  18854783.588    99082551.864        1558.827          43.000               
C19  20427361.287   106370640.703         512.367          41.000               
C11  24762950.157   128947179.729       -3653.299          21.000               
C07  38289274.799   199382301.219        -497.448          26.000               
C31  22533745.364   117339124.886        1924.905          35.000               
C37  24502610.720   127591522.261        1632.037          31.000               
E09  22045995.068   115852471.696        -384.262          39.000               
G06  19548628.204   102728732.426        1335.124          41.000               
E05  23332341.671   122612265.161        2277.118          36.000               
C22  23232294.859   120976655.041        2674.430          36.000               
E34  23004277.496   120888292.272        1716.760          35.000               
E36  22059749.237   115924796.127        -996.368          36.000               
E06  23051431.174   121136089.684       -1705.089          39.000               
E14  17143463.257    90089458.873       -2196.912          35.000               
> 2026 05 04 17 30 50.9950000  0 31                                             
G17  22181597.472   116565096.585       -3153.868          42.000               
G04  18910348.888    99374539.313        -696.331          38.000               
E11  23534969.672   123677100.292       -2856.144          29.000               
G01  22937959.014   120539787.781       -3778.895          23.000               
C20  21418658.571   111532574.141       -2076.067          41.000               
C29  22782341.512   118633641.474       -3384.489          39.000               
C10  38411117.223   200016767.103         -28.914          22.000               
C23  25007913.724   130222768.424        -596.080          22.000               
C12  20037885.846   104342531.256       -1063.831          40.000               
C35  21053211.153   109629603.688        -827.024          35.000               
R08  18078486.362    96809473.106       -1701.248          34.000               
R01  18645996.791    99673537.900        2054.648          38.000               
G03  20384026.813   107118783.172       -2746.213          31.000               
E04  24915195.020   130930233.270       -2662.983          31.000               
G31  22119908.558   116240903.713       -1960.849          27.000               
G19  20391481.691   107157952.429       -2179.699          40.000               
G09  18854486.760    99080992.403        1559.487          42.000               
C19  20427262.911   106370128.964         510.535          39.000               
C11  24763648.801   128950817.310       -3648.993          22.000               
C07  38289368.630   199382789.406        -499.156          26.000               
C31  22533374.110   117337202.861        1915.740          27.000               
C37  24502298.299   127589897.057        1628.284          31.000               
E09  22046068.257   115852856.100        -385.380          38.000               
G06  19548374.379   102727398.277        1333.624          40.000               
G11  22352654.677   117463992.466        3231.104          33.000               
E05  23331908.425   122609987.626        2277.066          37.000               
C22  23231779.717   120973972.714        2674.715          33.000               
E34  23003951.363   120886577.033        1715.141          36.000               
E36  22059938.597   115925791.900        -996.171          36.000               
E06  23051755.614   121137794.560       -1705.931          40.000               
E14  17143881.503    90091656.655       -2199.636          35.000               
> 2026 05 04 17 30 51.9950000  0 30                                             
G17  22182197.889   116568251.310       -3155.540          41.000               
G04  18910481.472    99375236.485        -697.948          36.000               
E11  23535513.699   123679958.482       -2853.687          29.000               
C20  21419057.551   111534652.134       -2077.177          39.000               
C29  22782991.316   118637025.499       -3382.589          37.000               
C10  38411125.598   200016809.913         -22.877          30.000               
C23  25008029.420   130223371.713        -611.487          22.000               
C12  20038090.396   104343596.876       -1066.121          39.000               
C35  21053370.152   109630431.355        -827.098          40.000               
R24  18352475.145    98138931.556        1430.722          41.000               
R08  18078806.107    96811173.889       -1701.932          37.000               
R01  18645612.422    99671483.311        2053.276          37.000               
G03  20384547.251   107121517.920       -2746.529          31.000               
E04  24915705.442   130932915.018       -2665.607          26.000               
G31  22120283.179   116242871.938       -1959.082          25.000               
G19  20391896.455   107160132.121       -2179.115          40.000               
G09  18854190.065    99079433.837        1558.162          42.000               
C19  20427164.787   106369617.807         511.010          41.000               
C11  24764349.645   128954467.013       -3636.744          22.000               
C07  38289461.155   199383271.527        -491.718          27.000               
C31  22533005.042   117335270.158        1923.345          37.000               
C37  24501984.014   127588259.924        1630.763          30.000               
E09  22046141.318   115853241.170        -385.162          38.000               
G06  19548120.603   102726064.940        1333.147          41.000               
E05  23331475.276   122607710.717        2276.583          37.000               
C22  23231269.671   120971297.450        2675.949          36.000               
E34  23003625.375   120884862.314        1715.047          37.000               
E36  22060128.086   115926788.377        -996.617          39.000               
E06  23052080.142   121139499.925       -1704.269          40.000               
E14  17144300.085    90093855.856       -2199.445          38.000               
> 2026 05 04 17 30 52.9950000  0 32                                             
G17  22182798.232   116571406.143       -3153.801          44.000               
G04  18910613.952    99375934.094        -698.070          39.000               
E11  23536056.990   123682814.205       -2855.600          27.000               
C20  21419456.580   111536730.446       -2080.707          37.000               
C29  22783641.304   118640409.992       -3385.585          32.000               
C10  38411130.585   200016836.124         -15.921          23.000               
C23  25008144.370   130223969.538        -602.812          22.000               
C12  20038294.958   104344662.680       -1066.193          39.000               
C35  21053529.292   109631259.571        -828.713          39.000               
R24  18352207.645    98137500.902        1430.740          41.000               
R08  18079124.395    96812875.000       -1702.214          38.000               
R16  22321627.480   119238126.610       -1770.463          25.000               
R01  18645228.084    99669429.139        2053.604          39.000               
G03  20385069.556   107124265.067       -2746.795          37.000               
E04  24916214.156   130935588.993       -2664.306          25.000               
G31  22120653.067   116244816.389       -1960.736          32.000               
G19  20392311.458   107162312.454       -2181.821          42.000               
G09  18853893.556    99077875.730        1557.602          44.000               
C19  20427066.498   106369107.036         510.658          40.000               
C11  24765048.756   128958107.347       -3650.624          22.000               
C07  38289556.645   199383769.311        -488.710          25.000               
C31  22532638.134   117333359.545        1919.848          35.000               
C37  24501672.678   127586639.231        1630.692          30.000               
R23  19261971.662   103038559.800       -3602.136          36.000               
E09  22046214.523   115853626.647        -385.592          38.000               
G06  19547866.854   102724732.033        1333.206          44.000               
E05  23331042.032   122605433.999        2276.052          41.000               
C22  23230753.265   120968622.405        2675.715          34.000               
E34  23003297.322   120883147.805        1712.191          37.000               
E36  22060317.810   115927785.160        -998.288          39.000               
E06  23052404.748   121141205.650       -1705.636          36.000               
E14  17144718.792    90096056.394       -2201.069          39.000               
> 2026 05 04 17 30 53.9950000  0 30                                             
G17  22183398.654   116574561.151       -3155.488          42.000               
G04  18910746.796    99376632.155        -698.902          39.000               
E11  23536599.745   123685665.492       -2856.601          32.000               
G01  22940102.548   120551051.688       -3773.063          39.000               
C20  21419856.365   111538813.055       -2079.927          30.000               
C29  22784293.557   118643794.828       -3385.282          27.000               
C10  38411131.765   200016842.580         -18.488          23.000               
C23  25008257.702   130224559.915        -604.875          22.000               
C12  20038499.640   104345728.653       -1065.157          38.000               
C35  21053688.424   109632088.168        -828.420          37.000               
R24  18351940.187    98136071.018        1429.018          40.000               
R01  18644843.887    99667375.428        2053.038          39.000               
G03  20385592.307   107127012.318       -2748.493          38.000               
E04  24916719.692   130938245.373       -2664.283          30.000               
G31  22121026.009   116246775.464       -1958.173          26.000               
G19  20392726.382   107164493.082       -2181.049          42.000               
G09  18853597.084    99076317.941        1558.666          44.000               
C19  20426968.344   106368596.399         510.044          40.000               
C11  24765748.279   128961750.164       -3634.843          23.000               
C07  38289650.078   199384255.855        -490.973          25.000               
C31  22532268.044   117331432.591        1921.694          31.000               
C37  24501358.562   127585003.156        1630.590          29.000               
E09  22046287.588   115854012.315        -385.012          39.000               
G06  19547613.228   102723399.542        1331.413          41.000               
E05  23330608.616   122603157.562        2274.902          37.000               
C22  23230239.802   120965947.283        2674.588          34.000               
E34  23002972.718   120881433.164        1713.770          38.000               
E36  22060507.568   115928782.073        -997.618          37.000               
E06  23052729.556   121142911.438       -1706.099          35.000               
E14  17145138.168    90098258.032       -2202.605          40.000               
> 2026 05 04 17 30 54.9950000  0 30                                             
G17  22183999.154   116577716.548       -3156.854          40.000               
G04  18910879.851    99377330.813        -698.825          37.000               
E11  23537145.642   123688522.186       -2854.854          34.000               
G01  22940818.272   120554812.718       -3774.825          33.000               
C20  21420257.265   111540900.567       -2076.301          39.000               
C29  22784944.232   118647183.367       -3386.435          32.000               
C10  38411133.760   200016853.248         -18.925          30.000               
C23  25008371.537   130225153.210        -600.642          22.000               
C12  20038704.522   104346795.311       -1067.753          40.000               
C35  21053847.641   109632917.573        -829.139          35.000               
R24  18351672.938    98134642.035        1428.308          41.000               
R01  18644459.831    99665322.553        2050.628          34.000               
G03  20386115.376   107129759.542       -2747.165          40.000               
E04  24917222.586   130940887.670       -2665.927          29.000               
G31  22121394.216   116248711.135       -1958.669          39.000               
G19  20393141.530   107166674.670       -2182.206          43.000               
G09  18853300.700    99074760.919        1558.580          41.000               
C19  20426870.484   106368086.343         510.126          40.000               
C11  24766446.047   128965383.048       -3634.627          22.000               
C07  38289745.269   199384751.155        -491.365          24.000               
C31  22531898.057   117329505.511        1919.861          27.000               
C37  24501046.374   127583377.784        1628.753          28.000               
E09  22046360.956   115854398.419        -384.791          34.000               
G06  19547359.657   102722067.746        1331.609          41.000               
E05  23330175.759   122600900.377        2278.313          32.000               
C22  23229726.629   120963281.767        2672.160          32.000               
E34  23002646.435   120879719.120        1714.441          37.000               
E36  22060697.178   115929779.385        -997.218          34.000               
E06  23053053.936   121144617.467       -1707.629          37.000               
E14  17145557.448    90100461.109       -2203.832          38.000               
> 2026 05 04 17 30 55.9950000  0 28                                             
G17  22184599.723   116580872.203       -3155.133          44.000               
G04  18911012.752    99378030.208        -700.096          39.000               
E11  23537687.878   123691379.409       -2857.296          31.000               
C20  21420653.927   111542979.216       -2078.428          42.000               
C29  22785596.718   118650581.292       -3386.920          27.000               
C10  38411138.704   200016874.118         -21.699          30.000               
C23  25008487.671   130225757.742        -605.661          23.000               
C12  20038909.235   104347862.090       -1065.762          32.000               
C35  21054006.851   109633738.493        -832.801          35.000               
R24  18351405.896    98133214.036        1427.096          40.000               
G03  20386639.294   107132507.353       -2748.228          41.000               
E04  24917729.550   130943551.677       -2662.187          33.000               
G31  22121765.872   116250669.065       -1959.554          36.000               
G19  20393556.848   107168856.973       -2182.366          43.000               
G09  18853004.495    99073204.715        1554.925          38.000               
C19  20426772.720   106367576.886         508.248          40.000               
C11  24767144.426   128969020.181       -3640.077          23.000               
C07  38289837.861   199385233.149        -488.385          30.000               
C31  22531532.856   117327603.914        1917.664          26.000               
C37  24500734.575   127581753.460        1629.733          27.000               
E09  22046434.592   115854785.299        -386.700          38.000               
G06  19547106.333   102720736.638        1332.450          41.000               
E05  23329737.970   122598599.784        2277.387          32.000               
C22  23229213.828   120960607.480        2673.752          35.000               
E34  23002320.212   120878005.629        1713.553          35.000               
E36  22060886.757   115930777.354        -998.551          32.000               
E06  23053378.558   121146324.072       -1706.487          38.000               
E14  17145976.544    90102665.669       -2205.260          36.000               
> 2026 05 04 17 30 56.9950000  0 30                                             
G17  22185200.292   116584028.147       -3155.804          40.000               
G04  18911145.968    99378729.906        -701.450          39.000               
E11  23538231.378   123694236.532       -2856.660          32.000               
G01  22942256.111   120562368.946       -3776.072          28.000               
C20  21421053.563   111545057.899       -2077.196          43.000               
C29  22786245.403   118653958.916       -3384.495          36.000               
C10  38411145.214   200016912.464         -19.994          28.000               
C23  25008601.589   130226350.477        -606.057          24.000               
C12  20039114.203   104348928.919       -1066.479          38.000               
C35  21054166.884   109634571.310        -830.128          38.000               
R24  18351138.982    98131786.852        1426.106          38.000               
G03  20387160.463   107135255.086       -2747.353          39.000               
E04  24918242.701   130946248.695       -2667.873          27.000               
G31  22122138.370   116252620.996       -1955.626          32.000               
G19  20393972.159   107171039.713       -2182.796          43.000               
G09  18852708.472    99071648.730        1556.542          41.000               
C19  20426674.954   106367067.425         510.664          41.000               
C11  24767839.765   128972640.695       -3639.110          37.000               
C07  38289928.444   199385704.655        -491.712          34.000               
C31  22531165.192   117325689.036        1920.972          32.000               
C37  24500421.812   127580124.753        1628.161          26.000               
E09  22046507.962   115855172.229        -386.732          38.000               
G06  19546853.135   102719406.079        1331.633          37.000               
G11  22348971.029   117444634.916        3235.387          30.000               
E05  23329309.170   122596346.861        2276.642          28.000               
C22  23228700.311   120957932.859        2673.306          34.000               
E34  23001994.109   120876292.140        1713.654          36.000               
E36  22061077.145   115931775.387        -996.811          39.000               
E06  23053703.265   121148030.698       -1707.045          41.000               
E14  17146396.445    90104871.391       -2205.304          37.000               
> 2026 05 04 17 30 57.9950000  0 29                                             
G17  22185800.849   116587184.223       -3157.867          27.000               
G04  18911279.183    99379429.953        -700.570          37.000               
E11  23538773.487   123697088.590       -2857.949          27.000               
C20  21421452.445   111547136.739       -2079.773          43.000               
C29  22786891.298   118657343.760       -3384.690          38.000               
C10  38411145.827   200016915.832         -33.448          26.000               
C23  25008718.280   130226958.080        -603.244          23.000               
C12  20039319.142   104349996.042       -1066.642          37.000               
C35  21054326.187   109635402.332        -832.354          40.000               
R24  18350872.425    98130361.484        1426.215          33.000               
G03  20387683.055   107138002.861       -2748.092          41.000               
E04  24918750.294   130948916.179       -2664.540          27.000               
G31  22122511.261   116254580.938       -1958.023          27.000               
G19  20394387.631   107173223.003       -2184.819          35.000               
G09  18852412.479    99070093.119        1555.341          38.000               
C19  20426577.075   106366558.368         509.318          40.000               
C11  24768529.870   128976233.917       -3639.736          35.000               
C07  38290020.936   199386186.265        -491.709          30.000               
C31  22530794.292   117323757.903        1920.090          27.000               
C37  24500112.724   127578515.496        1620.689          25.000               
E09  22046581.632   115855559.452        -388.634          37.000               
G06  19546599.858   102718076.030        1330.245          41.000               
G11  22348357.339   117441410.087        3228.787          26.000               
E05  23328876.901   122594074.929        2274.233          36.000               
C22  23228186.468   120955262.240        2673.447          34.000               
E34  23001668.086   120874578.835        1712.858          33.000               
E36  22061267.093   115932773.658        -997.355          35.000               
E06  23054028.098   121149737.565       -1708.331          40.000               
E14  17146816.502    90107078.422       -2208.716          35.000               
> 2026 05 04 17 30 58.9950000  0 30                                             
G17  22186401.409   116590340.760       -3156.860          34.000               
G04  18911412.474    99380130.913        -699.578          37.000               
E11  23539318.544   123699952.906       -2860.906          26.000               
G01  22943697.696   120569944.822       -3779.979          22.000               
C20  21421851.754   111549215.955       -2079.030          43.000               
C29  22787542.529   118660729.110       -3383.286          37.000               
C10  38411153.365   200016954.731         -30.617          25.000               
C23  25008836.849   130227575.639        -601.489          21.000               
C12  20039524.110   104351063.815       -1067.375          39.000               
C35  21054486.933   109636234.294        -831.300          38.000               
R24  18350604.977    98128936.467        1424.163          38.000               
G03  20388206.026   107140751.039       -2747.560          41.000               
E04  24919253.406   130951560.382       -2664.021          31.000               
G31  22122885.577   116256547.776       -1960.960          26.000               
G19  20394803.192   107175407.309       -2183.234          35.000               
G09  18852116.622    99068538.483        1553.109          43.000               
C19  20426479.489   106366050.054         508.205          38.000               
C11  24769229.886   128979879.150       -3637.976          32.000               
C07  38290115.538   199386679.529        -500.215          18.000               
C31  22530425.449   117321837.320        1925.088          26.000               
C37  24499801.975   127576898.018        1646.253          24.000               
E09  22046655.389   115855947.289        -387.488          38.000               
G06  19546346.793   102716746.620        1327.857          36.000               
G11  22347739.248   117438161.513        3229.258          26.000               
E05  23328444.039   122591800.217        2273.927          40.000               
C22  23227673.062   120952588.939        2673.619          34.000               
E34  23001342.624   120872866.385        1713.907          33.000               
E36  22061457.102   115933772.732        -999.759          39.000               
E06  23054353.006   121151444.957       -1707.500          39.000               
E14  17147236.844    90109286.968       -2210.705          32.000               
> 2026 05 04 17 30 59.9950000  0 28                                             
G17  22187002.277   116593497.646       -3158.069          30.000               
G04  18911545.789    99380832.590        -701.334          37.000               
E11  23539868.494   123702843.826       -2855.786          26.000               
G01  22944419.991   120573740.826       -3775.703          24.000               
C20  21422250.825   111551295.380       -2079.587          43.000               
C29  22788192.978   118664114.777       -3387.028          41.000               
C10  38411155.218   200016964.947         -31.268          25.000               
C23  25008952.683   130228178.567        -602.434          21.000               
C12  20039729.040   104352131.987       -1068.669          40.000               
C35  21054646.936   109637067.052        -834.094          38.000               
R24  18350336.617    98127511.805        1422.759          38.000               
G03  20388729.182   107143499.507       -2748.481          39.000               
E04  24919764.134   130954243.463       -2668.709          25.000               
G19  20395219.035   107177592.162       -2184.611          32.000               
G09  18851820.893    99066984.311        1554.576          42.000               
C19  20426381.850   106365542.145         507.550          40.000               
C11  24769930.714   128983528.421       -3649.807          26.000               
C31  22530056.972   117319918.349        1916.753          32.000               
C37  24499490.806   127575277.077        1621.594          24.000               
E09  22046729.159   115856335.668        -388.505          38.000               
G06  19546093.935   102715417.810        1328.337          40.000               
G11  22347123.010   117434923.792        3225.983          27.000               
E05  23328010.414   122589525.772        2273.926          42.000               
C22  23227159.791   120949915.199        2673.424          22.000               
E34  23001017.681   120871162.959        1715.967          20.000               
E36  22061647.413   115934772.160       -1000.548          39.000               
E06  23054677.728   121153152.662       -1707.762          39.000               
E14  17147657.411    90111496.885       -2211.190          33.000               
