     3.03           Observation Data    M                   RINEX VERSION / TYPE
MicDrop             IKOS                20260504 172808 UTC PGM / RUN BY / DATE 
                                                            COMMENT             
                                                            MARKER NAME         
GROUND_CRAFT                                                MARKER TYPE         
CH-01               IKOS                                    OBSERVER / AGENCY   
UBX-F9P             GROUND_CRAFT        0.0.1               REC # / TYPE / VERS 
Unknown             Unknown                                 ANT # / TYPE        
        0.0000        0.0000        0.0000                  ANTENNA: DELTA H/E/N
G    4 C1C L1C D1C S1C                                      SYS / # / OBS TYPES 
R    4 C1C L1C D1C S1C                                      SYS / # / OBS TYPES 
E    4 C1C L1C D1C S1C                                      SYS / # / OBS TYPES 
C    4 C2I L2I D2I S2I                                      SYS / # / OBS TYPES 
J    4 C1C L1C D1C S1C                                      SYS / # / OBS TYPES 
DBHZ                                                        SIGNAL STRENGTH UNIT
  2026    05    04    17    29   59.9940000     GPS         TIME OF FIRST OBS
G L1C                                                       SYS / PHASE SHIFT   
R L1C                                                       SYS / PHASE SHIFT   
E L1C                                                       SYS / PHASE SHIFT   
C L2I                                                       SYS / PHASE SHIFT   
J L1C                                                       SYS / PHASE SHIFT   
 11 R01  1 R08  6 R24  2 R23  3 R22 -3 R09 -2 R16 -1 R17  4 GLONASS SLOT / FRQ #
    R07  5 R10 -7 R02 -4                                    GLONASS SLOT / FRQ #
                                                            GLONASS COD/PHS/BIS 
                                                            END OF HEADER
> 2026 05 04 17 29 59.9940000  0 32                                             
G01  22530570.602   118398937.207       -3816.556          32.000               
G31  21730278.190   114193359.918       -1973.238          41.000               
G03  19986609.033   105030338.502       -2786.524          42.000               
C12  19656744.528   102357822.218       -1094.745          47.000               
C20  21027564.289   109496039.910       -2113.978          43.000               
C22  22887284.697   119180102.262        2647.753          44.000               
C35  20674492.103   107657517.489        -837.618          42.000               
C31  22181558.400   115505207.428        1905.573          41.000               
C07  37913809.922   197427140.668        -529.097          35.000               
R01  18294973.157    97797107.478        2041.183          43.000               
R08  17691646.799    94737969.106       -1720.897          42.000               
R24  17995835.153    96231821.081        1431.469          45.000               
R23  18855637.282   100864956.053       -3619.592          40.000               
R09  21205694.115   113237233.473        1330.939          36.000               
G04  18532933.267    97391216.113        -714.975          44.000               
E06  22664483.407   119102679.955       -1737.622          40.000               
G06  19190686.823   100847756.287        1320.252          47.000               
G09  18498973.832    97212752.732        1543.173          44.000               
G19  19999726.901   105099282.852       -2187.562          46.000               
C19  20061595.036   104465982.772         488.656          44.000               
C29  22378464.983   116530539.446       -3419.393          36.000               
R16  21933489.147   117164750.600       -1773.499          34.000               
R02  22352643.057   119277985.912        3629.922          16.000               
R17  21781091.770   116555021.403        4140.328          26.000               
R07  21143733.672   113184082.798       -3946.055          34.000               
E14  16752107.874    88032948.876       -2172.140          45.000               
E36  21679574.749   113926905.539       -1023.105          44.000               
E34  22649899.102   119026044.234        1687.909          41.000               
G17  21780278.646   114456136.141       -3183.172          28.000               
G11  22013332.525   115680861.849        3204.407          33.000               
E09  21671642.703   113885242.917        -410.964          43.000               
E05  22983310.797   120778107.494        2249.218          47.000               
> 2026 05 04 17 30  0.9940000  0 30                                             
G01  22531294.044   118402753.984       -3816.027          34.000               
G31  21730653.852   114195333.483       -1973.767          42.000               
G03  19987139.413   105033125.289       -2786.427          41.000               
C12  19656954.766   102358916.799       -1094.679          44.000               
C20  21027970.228   109498154.324       -2114.499          43.000               
C22  22886776.365   119177454.529        2647.643          40.000               
C35  20674652.679   107658355.464        -837.988          40.000               
C31  22181192.388   115503301.081        1906.207          41.000               
C07  37913911.520   197427669.733        -528.647          31.000               
R01  18294591.170    97795065.908        2041.417          42.000               
R08  17691968.155    94739690.505       -1721.530          44.000               
R24  17995567.087    96230389.470        1431.149          47.000               
R23  18856314.475   100868575.770       -3619.274          37.000               
R09  21205444.882   113235901.923        1331.165          33.000               
G04  18533068.094    97391931.032        -714.868          40.000               
E06  22664814.436   119104417.652       -1737.772          43.000               
G06  19190435.603   100846436.186        1319.958          47.000               
G09  18498678.146    97211209.205        1543.417          38.000               
G19  20000142.994   105101470.775       -2187.960          44.000               
C19  20061501.190   104465494.427         488.059          41.000               
C29  22379122.308   116533958.326       -3419.229          29.000               
R16  21933821.566   117166523.033       -1773.206          37.000               
R17  21780318.262   116550882.310        4138.347          36.000               
R07  21144475.305   113188030.998       -3946.935          23.000               
E14  16752521.721    88035121.999       -2173.529          35.000               
E36  21679769.049   113927929.092       -1023.397          39.000               
E34  22649580.183   119024355.724        1688.598          42.000               
G11  22012719.446   115677657.625        3204.492          36.000               
E09  21671721.361   113885653.635        -410.678          42.000               
E05  22982884.894   120775858.314        2249.167          44.000               
> 2026 05 04 17 30  1.9940000  0 32                                             
G01  22532021.006   118406571.099       -3817.565          35.000               
G31  21731029.353   114197307.727       -1974.367          42.000               
G03  19987669.794   105035912.487       -2787.685          43.000               
C12  19657165.050   102360011.872       -1095.480          45.000               
C20  21028376.321   109500269.093       -2114.828          43.000               
C22  22886268.063   119174807.181        2646.963          35.000               
C35  20674813.533   107659194.169        -839.334          40.000               
C31  22180826.485   115501395.356        1905.115          42.000               
C07  37914013.154   197428199.235        -530.994          26.000               
R01  18294209.370    97793025.059        2039.957          42.000               
R08  17692289.655    94741412.509       -1722.382          44.000               
R24  17995299.340    96228958.826        1430.499          46.000               
R23  18856991.943   100872195.818       -3620.171          40.000               
R09  21205195.614   113234571.234        1330.838          32.000               
G04  18533204.805    97392646.557        -715.513          42.000               
E06  22665144.832   119106155.849       -1738.426          43.000               
G06  19190184.532   100845116.771        1318.996          48.000               
G09  18498384.858    97209666.700        1541.824          33.000               
G19  20000559.424   105103659.414       -2189.425          44.000               
C19  20061407.202   104465006.459         487.013          42.000               
C29  22379782.670   116537377.331       -3419.024          28.000               
R16  21934152.914   117168296.337       -1773.847          30.000               
R17  21779547.493   116546743.758        4138.354          37.000               
R07  21145208.287   113191954.853       -3945.964          30.000               
E14  16752935.643    88037296.420       -2174.988          39.000               
E36  21679964.276   113928953.052       -1024.557          41.000               
E34  22649259.491   119022667.617        1687.432          41.000               
E11  23137580.462   121588805.692       -2898.655          25.000               
G17  21781492.697   114462515.967       -3185.801          32.000               
G11  22012100.254   115674367.329        3203.925          28.000               
E09  21671800.026   113886064.969        -411.625          41.000               
E05  22982456.872   120773609.511        2248.620          41.000               
> 2026 05 04 17 30  2.9940000  0 31                                             
G01  22532748.514   118410388.258       -3817.314          36.000               
G31  21731405.092   114199282.570       -1975.363          41.000               
G03  19988200.179   105038699.897       -2788.270          44.000               
C12  19657375.485   102361107.266       -1095.743          49.000               
C20  21028782.154   109502384.067       -2115.453          43.000               
C22  22885759.702   119172160.097        2646.403          41.000               
C35  20674974.629   107660033.479        -839.292          41.000               
C31  22180460.291   115499490.071        1904.376          43.000               
C07  37914114.936   197428745.726        -528.932          34.000               
R01  18293827.636    97790984.771        2039.924          42.000               
R08  17692611.317    94743135.029       -1723.110          44.000               
R24  17995031.798    96227529.090        1428.302          44.000               
R23  18857669.005   100875816.292       -3620.812          40.000               
R09  21204946.758   113233241.347        1330.097          28.000               
G04  18533341.690    97393362.733        -716.733          46.000               
E06  22665475.752   119107894.402       -1739.024          43.000               
G06  19189933.544   100843797.813        1318.614          47.000               
G09  18498092.361    97208124.854        1541.299          45.000               
G19  20000975.981   105105848.651       -2189.581          47.000               
C19  20061313.528   104464518.895         487.211          45.000               
C29  22380439.886   116540822.648       -3420.597          32.000               
R16  21934487.331   117170093.359       -1775.678          36.000               
R17  21778776.720   116542604.773        4137.891          37.000               
R07  21145945.823   113195902.821       -3945.758          37.000               
E14  16753349.239    88039472.080       -2176.367          45.000               
E36  21680159.281   113929977.314       -1024.568          43.000               
E34  22648938.224   119020979.703        1687.856          41.000               
E11  23138131.831   121591703.349       -2899.896          31.000               
G11  22011492.210   115671163.544        3202.917          32.000               
E09  21671878.150   113886476.684        -412.185          46.000               
E05  22982028.785   120771360.889        2248.129          46.000               
> 2026 05 04 17 30  3.9940000  0 30                                             
G01  22533474.979   118414205.648       -3817.867          36.000               
G31  21731781.167   114201258.135       -1976.163          40.000               
G03  19988730.744   105041487.682       -2787.831          42.000               
C12  19657585.974   102362203.065       -1096.123          47.000               
C20  21029188.173   109504499.421       -2115.406          42.000               
C22  22885251.335   119169513.110        2646.406          42.000               
C35  20675135.770   107660873.403        -840.121          42.000               
C31  22180094.359   115497585.139        1904.700          43.000               
C07  37914216.845   197429275.559        -530.277          29.000               
R01  18293446.049    97788945.084        2039.113          43.000               
R08  17692932.983    94744858.046       -1723.346          44.000               
R24  17994764.517    96226100.059        1428.291          43.000               
R23  18858345.803   100879437.504       -3621.737          40.000               
R09  21204698.236   113231912.251        1328.250          34.000               
G04  18533478.033    97394079.583        -717.270          45.000               
E06  22665806.625   119109633.381       -1739.265          42.000               
G06  19189682.767   100842479.495        1318.001          46.000               
G09  18497799.132    97206583.545        1540.979          43.000               
G19  20001392.565   105108038.493       -2190.440          46.000               
C19  20061219.928   104464031.791         486.891          46.000               
C29  22381093.495   116544242.131       -3420.574          33.000               
R16  21934819.566   117171868.378       -1775.653          35.000               
R17  21778006.054   116538466.677        4135.328          30.000               
R07  21146686.772   113199869.307       -3948.369          22.000               
E14  16753763.247    88041649.117       -2178.335          42.000               
E36  21680353.997   113931002.115       -1025.047          41.000               
E34  22648617.416   119019292.139        1687.034          40.000               
G11  22010885.512   115667983.967        3201.038          28.000               
E09  21671956.154   113886888.945        -412.597          42.000               
E05  22981599.047   120769112.672        2247.994          46.000               
> 2026 05 04 17 30  4.9940000  0 31                                             
G01  22534201.351   118418023.084       -3817.370          34.000               
G31  21732157.223   114203234.368       -1976.719          39.000               
G03  19989261.356   105044275.621       -2788.059          44.000               
C12  19657796.535   102363299.181       -1096.256          47.000               
C20  21029594.387   109506614.955       -2115.322          40.000               
C22  22884742.926   119166866.259        2646.766          41.000               
C35  20675296.971   107661713.833        -840.715          42.000               
C31  22179728.617   115495680.721        1904.736          39.000               
C07  37914318.602   197429805.506        -530.465          31.000               
R01  18293064.535    97786905.847        2039.231          43.000               
R08  17693254.774    94746581.615       -1724.027          43.000               
R24  17994497.250    96224671.880        1427.826          45.000               
R23  18859022.916   100883059.354       -3621.904          35.000               
R09  21204449.823   113230583.892        1327.392          33.000               
G04  18533614.506    97394796.980        -717.696          43.000               
E06  22666137.757   119111372.600       -1739.442          40.000               
G06  19189431.882   100841161.633        1317.756          46.000               
G09  18497505.916    97205042.767        1540.536          44.000               
G19  20001809.352   105110228.943       -2190.616          46.000               
C19  20061126.423   104463545.044         486.511          46.000               
C29  22381746.286   116547661.848       -3419.332          29.000               
R16  21935154.344   117173656.815       -1776.453          35.000               
R17  21777231.072   116534328.862        4138.015          34.000               
R07  21147422.205   113203806.300       -3944.159          30.000               
E14  16754177.209    88043827.409       -2178.803          42.000               
E36  21680548.561   113932027.276       -1024.955          40.000               
E34  22648296.411   119017604.771        1687.285          40.000               
E11  23139233.594   121597492.938       -2899.546          30.000               
G11  22010281.206   115664780.529        3203.381          36.000               
E09  21672034.640   113887301.622        -412.908          41.000               
E05  22981171.341   120766864.722        2247.757          46.000               
> 2026 05 04 17 30  5.9940000  0 31                                             
G01  22534927.862   118421840.907       -3817.936          34.000               
G31  21732533.549   114205211.293       -1977.562          39.000               
G03  19989792.008   105047063.948       -2788.231          44.000               
C12  19658007.185   102364395.796       -1096.570          48.000               
C20  21030000.707   109508730.877       -2115.948          41.000               
C22  22884234.545   119164219.851        2646.422          42.000               
C35  20675458.401   107662555.010        -841.079          42.000               
C31  22179362.847   115493776.859        1904.047          40.000               
C07  37914420.666   197430335.877        -531.302          32.000               
R01  18292683.220    97784867.251        2038.259          39.000               
R08  17693576.714    94748305.824       -1724.794          44.000               
R24  17994230.355    96223244.739        1426.647          42.000               
R23  18859700.001   100886681.886       -3623.406          38.000               
R09  21204201.315   113229256.460        1326.540          33.000               
G04  18533751.098    97395515.070        -717.806          44.000               
E06  22666469.083   119113112.353       -1739.856          40.000               
G06  19189181.238   100839844.506        1316.925          46.000               
G09  18497212.824    97203502.654        1539.766          45.000               
G19  20002226.246   105112420.131       -2191.714          46.000               
C19  20061033.014   104463058.855         485.799          47.000               
C29  22382401.891   116551081.889       -3419.889          29.000               
R16  21935495.964   117175433.476       -1777.789          34.000               
R17  21776458.236   116530191.064        4137.619          34.000               
R07  21148158.568   113207751.758       -3945.363          33.000               
E14  16754591.783    88046007.068       -2180.477          43.000               
E36  21680743.396   113933052.912       -1025.900          41.000               
E34  22647975.483   119015917.894        1686.289          40.000               
E11  23139786.494   121600393.097       -2900.916          35.000               
G11  22009672.371   115661577.365        3203.882          28.000               
E09  21672112.646   113887714.812        -412.977          42.000               
E05  22980743.380   120764617.276        2247.346          46.000               
> 2026 05 04 17 30  6.9940000  0 31                                             
G01  22535654.361   118425658.513       -3816.869          35.000               
G31  21732909.904   114207188.653       -1977.420          41.000               
G03  19990322.565   105049852.188       -2788.294          44.000               
C12  19658217.840   102365492.509       -1096.868          49.000               
C20  21030407.069   109510846.777       -2115.868          42.000               
C22  22883726.177   119161573.386        2646.492          40.000               
C35  20675619.796   107663396.454        -841.353          42.000               
C31  22178997.086   115491873.238        1903.534          35.000               
C07  37914522.505   197430866.011        -530.135          33.000               
R01  18292301.840    97782828.974        2037.848          41.000               
R08  17693898.769    94750030.317       -1724.698          44.000               
R24  17993963.394    96221818.054        1425.819          43.000               
R23  18860376.950   100890304.562       -3623.084          40.000               
R09  21203953.116   113227929.436        1326.621          34.000               
G04  18533887.820    97396233.486        -718.521          47.000               
E06  22666799.797   119114852.165       -1739.875          41.000               
G06  19188930.678   100838527.631        1317.079          47.000               
G09  18496919.777    97201962.894        1539.724          47.000               
G19  20002643.142   105114611.705       -2191.973          47.000               
C19  20060939.606   104462572.741         486.014          43.000               
C29  22383059.985   116554501.925       -3419.508          34.000               
R16  21935827.226   117177210.499       -1777.918          32.000               
R17  21775684.575   116526052.843        4137.758          32.000               
R07  21148895.695   113211697.103       -3945.822          33.000               
E14  16755006.980    88048187.841       -2181.201          47.000               
E36  21680938.741   113934078.709       -1025.782          45.000               
E34  22647654.532   119014230.912        1687.343          41.000               
G17  21784521.770   114478434.294       -3185.369          30.000               
G11  22009061.825   115658374.414        3202.850          28.000               
E09  21672191.574   113888128.216        -413.301          44.000               
E05  22980315.365   120762369.883        2247.194          47.000               
> 2026 05 04 17 30  7.9940000  0 31                                             
G01  22536380.947   118429476.423       -3817.653          35.000               
G31  21733286.381   114209166.728       -1978.375          41.000               
G03  19990853.131   105052640.847       -2788.802          43.000               
C12  19658428.582   102366589.690       -1097.391          49.000               
C20  21030813.381   109512963.089       -2116.478          41.000               
C22  22883217.863   119158927.213        2645.607          41.000               
C35  20675781.483   107664238.674        -842.931          42.000               
C31  22178631.356   115489970.249        1902.429          38.000               
C07  37914624.515   197431396.529        -529.820          33.000               
R01  18291920.623    97780791.362        2036.825          42.000               
R08  17694220.924    94751755.461       -1725.708          44.000               
R24  17993696.700    96220392.341        1425.277          44.000               
R23  18861054.189   100893928.165       -3623.853          39.000               
R09  21203704.826   113226603.351        1325.167          33.000               
G04  18534024.572    97396952.655        -719.718          45.000               
E06  22667130.287   119116592.494       -1740.666          40.000               
G06  19188680.398   100837211.453        1315.792          46.000               
G09  18496626.915    97200423.772        1538.870          46.000               
G19  20003060.319   105116803.956       -2192.629          47.000               
C19  20060846.197   104462087.209         485.179          44.000               
C29  22383716.086   116557922.309       -3420.560          35.000               
R16  21936155.078   117178988.502       -1778.754          27.000               
R17  21774911.423   116521915.275        4137.364          37.000               
R07  21149632.084   113215642.472       -3945.282          31.000               
E14  16755422.365    88050369.973       -2182.955          46.000               
E36  21681134.154   113935105.017       -1026.583          45.000               
E34  22647334.052   119012544.415        1686.178          41.000               
G17  21785127.910   114481619.922       -3185.026          30.000               
G11  22008452.550   115655171.003        3202.411          33.000               
E09  21672270.604   113888542.229        -414.514          45.000               
E05  22979887.612   120760122.865        2246.864          48.000               
> 2026 05 04 17 30  8.9940000  0 31                                             
G01  22537107.599   118433294.463       -3817.953          35.000               
G31  21733663.013   114211145.440       -1979.012          41.000               
G03  19991383.772   105055429.763       -2789.165          42.000               
C12  19658639.481   102367687.197       -1097.750          49.000               
C20  21031219.795   109515079.602       -2116.654          41.000               
C22  22882709.609   119156281.132        2646.138          41.000               
C35  20675943.347   107665081.400        -843.078          42.000               
C31  22178265.565   115488067.570        1902.533          37.000               
C07  37914726.631   197431926.798        -531.777          34.000               
R01  18291539.564    97778754.261        2036.762          44.000               
R08  17694543.194    94753481.097       -1725.813          44.000               
R24  17993430.041    96218967.379        1424.539          44.000               
R23  18861731.623   100897552.344       -3624.945          39.000               
R09  21203456.812   113225277.919        1325.172          34.000               
G04  18534161.592    97397672.375        -720.153          45.000               
E06  22667460.934   119118333.142       -1740.846          39.000               
G06  19188429.961   100835895.795        1315.330          46.000               
G09  18496334.160    97198885.188        1538.407          47.000               
G19  20003477.551   105118996.771       -2193.102          48.000               
C19  20060752.962   104461602.014         484.956          44.000               
C29  22384374.283   116561342.846       -3420.296          35.000               
R16  21936485.466   117180766.924       -1779.417          27.000               
R17  21774138.464   116517777.916        4137.440          36.000               
R07  21150366.944   113219587.952       -3946.266          30.000               
E14  16755837.775    88052553.356       -2183.937          47.000               
E36  21681329.198   113936131.679       -1026.844          45.000               
E34  22647012.913   119010858.146        1686.247          41.000               
G17  21785736.057   114484805.684       -3185.608          29.000               
G11  22007845.029   115651968.409        3202.258          33.000               
E09  21672349.480   113888956.629        -414.606          44.000               
E05  22979460.190   120757876.151        2246.531          48.000               
> 2026 05 04 17 30  9.9940000  0 30                                             
G01  22537834.173   118437112.365       -3816.968          34.000               
G31  21734039.747   114213124.588       -1978.978          42.000               
G03  19991914.494   105058218.729       -2788.307          42.000               
C12  19658850.330   102368784.857       -1097.228          49.000               
C20  21031626.364   109517196.223       -2116.092          43.000               
C22  22882201.409   119153635.065        2646.614          41.000               
C35  20676105.227   107665924.503        -843.192          42.000               
C31  22177900.073   115486165.139        1902.930          38.000               
C07  37914828.768   197432457.486        -529.801          33.000               
R01  18291158.477    97776717.459        2037.334          44.000               
R08  17694865.529    94755207.114       -1725.612          44.000               
R24  17993163.650    96217543.069        1424.622          45.000               
R23  18862409.190   100901176.863       -3624.610          39.000               
R09  21203209.038   113223953.107        1325.114          37.000               
G04  18534298.551    97398392.487        -719.791          45.000               
E06  22667791.888   119120073.989       -1740.282          39.000               
G06  19188179.706   100834580.425        1315.716          46.000               
G09  18496041.479    97197346.931        1538.595          47.000               
G19  20003894.747   105121189.958       -2192.781          47.000               
C19  20060659.892   104461116.983         485.403          45.000               
C29  22385030.665   116564763.314       -3419.201          34.000               
R16  21936818.627   117182547.195       -1779.285          27.000               
R17  21773365.391   116513640.452        4138.349          34.000               
R07  21151102.132   113223533.297       -3945.567          29.000               
E14  16756253.556    88054737.791       -2184.626          46.000               
E36  21681524.430   113937158.525       -1026.415          45.000               
E34  22646692.159   119009171.909        1686.688          41.000               
G11  22007236.935   115648765.702        3204.016          33.000               
E09  21672428.541   113889371.268        -414.441          44.000               
E05  22979032.863   120755629.509        2246.894          48.000               
> 2026 05 04 17 30 10.9940000  0 31                                             
G01  22538560.906   118440930.464       -3817.708          35.000               
G31  21734416.688   114215104.416       -1980.151          43.000               
G03  19992445.259   105061007.959       -2789.153          42.000               
C12  19659061.256   102369882.904       -1098.302          49.000               
C20  21032032.986   109519313.110       -2117.016          43.000               
C22  22881693.154   119150989.158        2645.718          42.000               
C35  20676267.411   107666768.220        -844.115          44.000               
C31  22177534.600   115484263.127        1901.801          40.000               
C07  37914931.045   197432988.447        -531.132          32.000               
R01  18290777.552    97774681.276        2035.728          44.000               
R08  17695187.810    94756933.700       -1726.898          44.000               
R24  17992897.429    96216119.593        1422.935          46.000               
R23  18863086.770   100904801.995       -3625.549          40.000               
R09  21202961.248   113222629.121        1323.697          37.000               
G04  18534435.624    97399113.214        -720.988          44.000               
E06  22668123.148   119121815.150       -1741.245          39.000               
G06  19187929.691   100833265.632        1314.542          46.000               
G09  18495748.926    97195809.260        1537.273          46.000               
G19  20004312.167   105123383.762       -2194.339          47.000               
C19  20060566.743   104460632.387         484.511          45.000               
C29  22385687.661   116568184.140       -3420.761          35.000               
R16  21937151.079   117184322.911       -1782.734          26.000               
R17  21772592.296   116509503.295        4136.698          36.000               
R07  21151837.762   113227442.695       -3945.400          30.000               
E14  16756669.508    88056923.520       -2186.528          46.000               
E36  21681719.944   113938185.793       -1027.618          45.000               
E34  22646371.105   119007485.968        1685.495          41.000               
G17  21786946.741   114491177.694       -3186.454          30.000               
G11  22006627.118   115645563.253        3203.076          34.000               
E09  21672507.411   113889786.393        -415.350          43.000               
E05  22978605.080   120753383.204        2246.010          47.000               
> 2026 05 04 17 30 11.9940000  0 32                                             
G01  22539287.552   118444748.942       -3818.917          36.000               
G31  21734793.761   114217085.055       -1980.838          42.000               
G03  19992976.063   105063797.609       -2789.499          42.000               
C12  19659272.181   102370981.473       -1098.938          48.000               
C20  21032439.632   109521430.420       -2117.457          43.000               
C22  22881185.007   119148343.638        2645.251          42.000               
C35  20676429.574   107667612.626        -844.708          44.000               
C31  22177169.179   115482361.769        1901.373          40.000               
C07  37915033.105   197433519.817        -532.387          32.000               
R01  18290396.764    97772645.768        2034.755          43.000               
R08  17695510.359    94758660.976       -1727.615          44.000               
R24  17992631.355    96214697.108        1421.964          45.000               
R23  18863764.437   100908427.886       -3626.348          40.000               
R09  21202713.744   113221306.059        1322.262          37.000               
G04  18534572.924    97399834.725        -721.876          45.000               
E06  22668454.634   119123556.880       -1742.041          40.000               
G06  19187679.542   100831951.590        1313.510          47.000               
G09  18495456.434    97194272.314        1536.538          46.000               
G19  20004729.676   105125578.317       -2194.692          46.000               
C19  20060473.828   104460148.335         483.811          45.000               
C29  22386344.750   116571605.325       -3421.334          34.000               
R16  21937484.731   117186105.180       -1779.605          25.000               
R17  21771819.460   116505366.453        4136.200          36.000               
R07  21152574.910   113231388.345       -3945.624          29.000               
E14  16757085.764    88059110.706       -2187.990          46.000               
E36  21681915.539   113939213.614       -1028.113          45.000               
E34  22646049.836   119005800.487        1685.095          40.000               
E11  23143101.504   121617818.460       -2900.808          27.000               
G17  21787553.024   114494364.181       -3186.713          31.000               
G11  22006017.811   115642361.194        3202.246          34.000               
E09  21672586.390   113890202.118        -416.139          43.000               
E05  22978177.606   120751137.361        2245.480          47.000               
> 2026 05 04 17 30 12.9940000  0 32                                             
G01  22540014.285   118448567.367       -3818.591          35.000               
G31  21735170.871   114219066.207       -1981.539          43.000               
G03  19993506.935   105066587.424       -2790.060          43.000               
C12  19659483.065   102372080.272       -1098.979          48.000               
C20  21032846.361   109523547.882       -2117.448          42.000               
C22  22880676.941   119145698.169        2645.336          42.000               
C35  20676591.782   107668457.553        -845.419          44.000               
C31  22176803.911   115480460.736        1900.812          40.000               
C07  37915135.181   197434051.143        -530.841          32.000               
R01  18290016.154    97770610.636        2034.936          44.000               
R08  17695833.071    94760388.659       -1728.068          45.000               
R24  17992365.334    96213275.312        1421.380          45.000               
R23  18864442.264   100912054.268       -3626.915          39.000               
R09  21202466.353   113219983.595        1322.303          37.000               
G04  18534710.301    97400556.711        -722.391          45.000               
E06  22668786.233   119125298.804       -1742.036          39.000               
G06  19187429.616   100830637.936        1313.204          46.000               
G09  18495164.025    97192735.826        1536.178          46.000               
G19  20005147.273   105127773.366       -2195.411          46.000               
C19  20060380.845   104459664.549         483.538          44.000               
C29  22387001.955   116575026.577       -3421.843          35.000               
R16  21937820.823   117187900.718       -1782.059          25.000               
R17  21771046.447   116501229.560        4136.884          34.000               
R07  21153311.436   113235333.854       -3946.031          27.000               
E14  16757502.338    88061299.062       -2188.956          46.000               
E36  21682111.350   113940241.718       -1028.235          45.000               
E34  22645728.739   119004115.125        1685.075          40.000               
E11  23143656.102   121620719.687       -2901.195          26.000               
G17  21788159.497   114497550.765       -3187.026          31.000               
G11  22005408.393   115639159.195        3201.599          34.000               
E09  21672665.705   113890618.171        -416.239          43.000               
E05  22977750.267   120748891.693        2245.431          46.000               
> 2026 05 04 17 30 13.9940000  0 32                                             
G01  22540740.872   118452385.898       -3819.154          35.000               
G31  21735548.122   114221047.940       -1982.080          43.000               
G03  19994037.848   105069377.422       -2790.053          43.000               
C12  19659694.067   102373179.388       -1099.357          48.000               
C20  21033253.013   109525665.564       -2118.109          42.000               
C22  22880168.891   119143052.874        2645.133          42.000               
C35  20676754.174   107669302.975        -845.669          44.000               
C31  22176438.829   115478560.111        1900.330          41.000               
C07  37915237.542   197434582.722        -531.555          31.000               
R01  18289635.512    97768576.016        2034.340          43.000               
R08  17696155.783    94762116.824       -1728.426          45.000               
R24  17992099.399    96211854.332        1420.508          44.000               
R23  18865120.063   100915681.169       -3626.993          38.000               
R09  21202219.083   113218661.870        1321.249          37.000               
G04  18534847.791    97401279.238        -722.998          45.000               
E06  22669117.832   119127041.077       -1742.640          39.000               
G06  19187179.715   100829324.784        1312.698          46.000               
G09  18494871.791    97191199.840        1535.677          46.000               
G19  20005565.000   105129968.964       -2196.069          46.000               
C19  20060287.954   104459181.128         483.030          44.000               
C29  22387659.021   116578447.975       -3421.316          35.000               
R16  21938157.907   117189701.458       -1783.722          26.000               
R17  21770273.609   116497092.862        4136.098          34.000               
R07  21154048.333   113239279.417       -3945.769          26.000               
E14  16757918.922    88063488.659       -2190.299          45.000               
E36  21682307.042   113941270.169       -1028.868          45.000               
E34  22645408.243   119002429.975        1685.153          41.000               
E11  23144209.003   121623621.015       -2901.744          26.000               
G17  21788766.896   114500737.543       -3186.622          31.000               
G11  22004799.064   115635957.286        3201.758          37.000               
E09  21672744.756   113891034.654        -416.865          43.000               
E05  22977322.917   120746646.324        2245.078          46.000               
> 2026 05 04 17 30 14.9940000  0 32                                             
G01  22541467.684   118456204.594       -3818.857          34.000               
G31  21735925.411   114223030.399       -1983.083          43.000               
G03  19994568.838   105072167.736       -2790.766          43.000               
C12  19659905.226   102374278.920       -1100.038          48.000               
C20  21033659.788   109527783.555       -2118.628          42.000               
C22  22879660.823   119140407.827        2644.654          42.000               
C35  20676916.635   107670149.096        -847.056          43.000               
C31  22176073.849   115476660.005        1899.457          42.000               
C07  37915339.634   197435114.539        -532.330          31.000               
R01  18289254.937    97766542.016        2033.296          42.000               
R08  17696478.615    94763845.579       -1729.409          45.000               
R24  17991833.695    96210434.218        1419.264          44.000               
R23  18865798.230   100919308.735       -3627.831          40.000               
R09  21201972.011   113217340.967        1320.139          37.000               
G04  18534985.485    97402002.437        -723.951          44.000               
E06  22669449.301   119128783.732       -1743.096          39.000               
G06  19186929.936   100828012.235        1312.075          47.000               
G09  18494579.590    97189664.452        1535.052          45.000               
G19  20005982.818   105132165.241       -2197.061          47.000               
C19  20060195.042   104458698.137         482.400          44.000               
C29  22388315.938   116581869.662       -3422.073          36.000               
R16  21938500.027   117191484.890       -1781.915          28.000               
R17  21769500.815   116492956.418        4135.392          34.000               
R07  21154784.908   113243218.963       -3946.611          25.000               
E14  16758335.985    88065679.611       -2191.877          45.000               
E36  21682502.869   113942299.079       -1029.519          45.000               
E34  22645087.847   119000745.197        1684.313          41.000               
E11  23144758.967   121626522.527       -2901.892          27.000               
G17  21789373.422   114503924.658       -3187.557          30.000               
G11  22004189.545   115632755.637        3201.465          37.000               
E09  21672824.017   113891451.654        -417.515          43.000               
E05  22976895.620   120744401.314        2244.313          47.000               
> 2026 05 04 17 30 15.9940000  0 32                                             
G01  22542194.554   118460023.579       -3819.221          29.000               
G31  21736302.703   114225013.454       -1983.795          41.000               
G03  19995099.622   105074958.218       -2790.757          46.000               
C12  19660116.451   102375378.759       -1100.139          49.000               
C20  21034066.559   109529901.734       -2118.475          45.000               
C22  22879152.774   119137762.871        2644.475          42.000               
C35  20677079.132   107670995.681        -846.890          43.000               
C31  22175708.892   115474760.254        1899.280          38.000               
C07  37915441.628   197435646.571        -532.378          34.000               
R01  18288874.734    97764508.433        2032.954          46.000               
R08  17696801.438    94765574.807       -1729.578          45.000               
R24  17991568.073    96209014.953        1418.089          46.000               
R23  18866476.604   100922936.899       -3628.597          48.000               
R09  21201724.986   113216020.812        1319.968          34.000               
G04  18535123.157    97402726.178        -724.204          46.000               
E06  22669781.447   119130526.688       -1743.397          42.000               
G06  19186680.148   100826700.183        1311.621          48.000               
G09  18494287.526    97188129.632        1534.333          44.000               
G19  20006400.769   105134362.036       -2197.515          46.000               
C19  20060102.394   104458215.448         482.347          45.000               
C29  22388973.086   116585291.556       -3422.515          38.000               
R16  21938837.666   117193332.197       -1784.509          33.000               
R17  21768728.175   116488820.180        4135.982          36.000               
R07  21155520.260   113247155.936       -3945.278          32.000               
E14  16758752.921    88067871.761       -2192.702          43.000               
E36  21682698.444   113943328.323       -1029.744          46.000               
E34  22644767.246   118999060.660        1684.225          39.000               
E11  23145308.837   121629423.630       -2902.422          27.000               
G17  21789980.136   114507111.859       -3186.760          29.000               
G11  22003580.220   115629554.153        3201.239          34.000               
E09  21672903.241   113891869.035        -417.793          45.000               
E05  22976468.400   120742156.543        2244.413          47.000               
> 2026 05 04 17 30 16.9940000  0 32                                             
G01  22542921.474   118463842.564       -3818.953          29.000               
G31  21736680.262   114226997.136       -1984.238          42.000               
G03  19995630.673   105077748.989       -2790.974          46.000               
C12  19660327.727   102376478.930       -1100.314          48.000               
C20  21034473.495   109532020.188       -2118.702          45.000               
C22  22878644.954   119135118.127        2644.510          43.000               
C35  20677241.736   107671842.834        -847.515          43.000               
C31  22175344.059   115472860.986        1898.779          39.000               
C07  37915543.860   197436178.683        -531.141          34.000               
R01  18288494.555    97762475.396        2032.543          46.000               
R08  17697124.480    94767304.597       -1730.190          44.000               
R24  17991302.724    96207596.370        1418.213          47.000               
R23  18867155.137   100926565.576       -3629.148          47.000               
R09  21201478.139   113214701.347        1319.237          35.000               
G04  18535260.992    97403450.479        -724.742          46.000               
E06  22670113.728   119132270.002       -1743.489          43.000               
G06  19186430.566   100825388.648        1311.292          47.000               
G09  18493995.544    97186595.317        1533.974          43.000               
G19  20006818.911   105136559.421       -2197.954          46.000               
C19  20060009.940   104457733.183         482.045          44.000               
C29  22389630.329   116588713.575       -3422.139          37.000               
R16  21939173.249   117195125.074       -1784.821          33.000               
R17  21767955.426   116484684.085        4136.458          34.000               
R07  21156263.376   113251133.709       -3945.651          32.000               
E14  16759170.144    88070065.198       -2194.061          43.000               
E36  21682894.620   113944357.940       -1029.915          46.000               
E34  22644446.313   118997376.343        1684.337          40.000               
E11  23145861.177   121632325.505       -2902.239          30.000               
G17  21790586.750   114510299.338       -3187.519          29.000               
G11  22002970.899   115626352.877        3201.477          34.000               
E09  21672982.658   113892286.844        -418.111          45.000               
E05  22976041.746   120739912.067        2244.297          47.000               
> 2026 05 04 17 30 17.9940000  0 32                                             
G01  22543648.185   118467661.739       -3819.121          29.000               
G31  21737057.970   114228981.547       -1984.575          42.000               
G03  19996161.647   105080540.121       -2791.364          46.000               
C12  19660539.097   102377579.576       -1100.779          48.000               
C20  21034880.536   109534139.006       -2118.875          45.000               
C22  22878137.071   119132473.666        2644.556          43.000               
C35  20677404.424   107672690.695        -847.959          42.000               
C31  22174979.437   115470962.255        1898.004          39.000               
C07  37915646.241   197436711.190        -532.650          34.000               
R01  18288114.471    97760443.028        2032.285          46.000               
R08  17697447.476    94769035.021       -1730.476          44.000               
R24  17991037.617    96206178.752        1417.294          47.000               
R23  18867833.744   100930194.971       -3629.626          47.000               
R09  21201231.327   113213382.815        1318.222          35.000               
G04  18535398.959    97404175.505        -725.281          46.000               
E06  22670445.703   119134013.796       -1743.939          43.000               
G06  19186180.980   100824077.776        1310.803          47.000               
G09  18493703.656    97185061.627        1533.832          43.000               
G19  20007237.158   105138757.511       -2198.448          46.000               
C19  20059917.511   104457251.431         481.566          44.000               
C29  22390287.371   116592135.939       -3422.225          37.000               
R16  21939504.862   117196910.868       -1786.371          34.000               
R17  21767182.596   116480548.278        4135.492          34.000               
R07  21156998.672   113255079.612       -3945.025          32.000               
E14  16759587.775    88072260.020       -2195.420          43.000               
E36  21683090.456   113945388.064       -1030.328          45.000               
E34  22644125.606   118995692.400        1683.535          40.000               
E11  23146410.541   121635227.707       -2902.417          31.000               
G17  21791193.577   114513487.146       -3188.032          29.000               
G11  22002361.761   115623151.909        3201.630          34.000               
E09  21673062.216   113892705.227        -418.485          45.000               
E05  22975614.676   120737668.004        2243.911          47.000               
> 2026 05 04 17 30 18.9940000  0 32                                             
G01  22544374.878   118471481.165       -3820.959          31.000               
G31  21737435.736   114230966.582       -1985.168          43.000               
G03  19996692.718   105083331.437       -2791.219          46.000               
C12  19660750.489   102378680.531       -1100.970          47.000               
C20  21035287.424   109536258.054       -2118.866          45.000               
C22  22877629.211   119129829.371        2644.646          44.000               
C35  20677567.240   107673539.104        -848.229          42.000               
C31  22174614.695   115469063.899        1898.438          38.000               
C07  37915748.812   197437243.747        -532.148          34.000               
R01  18287734.391    97758411.160        2031.940          46.000               
R08  17697770.729    94770765.918       -1730.800          44.000               
R24  17990772.575    96204761.959        1416.727          46.000               
R23  18868512.424   100933824.893       -3629.746          47.000               
R09  21200984.695   113212064.983        1317.700          38.000               
G04  18535536.916    97404901.037        -725.273          45.000               
E06  22670777.119   119135757.897       -1744.334          42.000               
G06  19185931.664   100822767.433        1310.352          47.000               
G09  18493411.862    97183528.475        1533.295          43.000               
G19  20007655.499   105140956.146       -2198.461          45.000               
C19  20059825.082   104456770.023         481.786          44.000               
C29  22390944.663   116595558.409       -3422.241          37.000               
R16  21939832.875   117198697.401       -1786.884          35.000               
R17  21766409.788   116476412.519        4136.925          34.000               
R07  21157738.577   113259025.571       -3945.417          31.000               
E14  16760005.721    88074456.084       -2196.521          43.000               
E36  21683286.439   113946418.536       -1030.503          45.000               
E34  22643805.433   118994008.738        1683.623          40.000               
E11  23146960.014   121638130.080       -2902.292          32.000               
G17  21791800.407   114516675.164       -3188.177          30.000               
G11  22001752.464   115619951.093        3201.526          34.000               
E09  21673142.017   113893123.971        -418.591          45.000               
E05  22975188.115   120735424.206        2243.799          46.000               
> 2026 05 04 17 30 19.9940000  0 32                                             
G01  22545101.651   118475300.443       -3819.792          31.000               
G31  21737813.608   114232952.171       -1985.581          42.000               
G03  19997223.847   105086122.930       -2791.605          45.000               
C12  19660961.815   102379781.767       -1101.304          47.000               
C20  21035694.522   109538377.266       -2119.026          45.000               
C22  22877121.459   119127185.198        2644.270          43.000               
C35  20677730.228   107674388.075        -848.952          43.000               
C31  22174250.071   115467165.975        1897.223          36.000               
C07  37915851.277   197437776.566        -533.121          34.000               
R01  18287354.366    97756379.788        2031.279          47.000               
R08  17698094.146    94772497.290       -1731.519          43.000               
R24  17990507.829    96203345.890        1415.438          47.000               
R23  18869191.253   100937455.364       -3630.690          45.000               
R09  21200738.195   113210747.833        1316.773          38.000               
G04  18535675.034    97405627.138        -726.308          45.000               
E06  22671108.805   119137502.253       -1744.576          42.000               
G06  19185682.400   100821457.556        1309.619          47.000               
G09  18493120.214    97181995.818        1531.940          44.000               
G19  20008073.947   105143155.388       -2199.550          45.000               
C19  20059732.687   104456288.976         481.023          45.000               
C29  22391601.947   116598981.085       -3422.690          39.000               
R16  21940163.608   117200484.607       -1787.085          36.000               
R17  21765637.320   116472276.990        4135.274          34.000               
R07  21158479.972   113262971.648       -3945.979          33.000               
E14  16760424.034    88076653.321       -2197.926          44.000               
E36  21683482.637   113947449.298       -1030.999          46.000               
E34  22643485.536   118992325.226        1683.374          41.000               
E11  23147516.699   121641032.549       -2902.949          33.000               
G17  21792407.151   114519863.313       -3187.460          32.000               
G11  22001143.367   115616750.462        3199.786          34.000               
E09  21673221.842   113893543.120        -419.233          45.000               
E05  22974760.968   120733180.637        2243.440          46.000               
> 2026 05 04 17 30 20.9940000  0 32                                             
G01  22545828.211   118479119.896       -3820.034          31.000               
G31  21738191.529   114234938.326       -1986.926          43.000               
G03  19997754.971   105088914.598       -2792.396          44.000               
C12  19661173.456   102380883.257       -1102.151          47.000               
C20  21036101.685   109540496.669       -2119.978          45.000               
C22  22876613.875   119124541.097        2643.602          43.000               
C35  20677893.219   107675237.492        -850.168          42.000               
C31  22173885.594   115465268.293        1896.643          39.000               
C07  37915953.743   197438309.381        -533.943          34.000               
R01  18286974.611    97754348.863        2030.560          47.000               
R08  17698417.587    94774229.073       -1732.393          43.000               
R24  17990243.118    96201930.508        1414.515          46.000               
R23  18869870.108   100941086.300       -3631.703          45.000               
R09  21200491.739   113209431.312        1315.689          38.000               
G04  18535813.317    97406353.724        -727.222          46.000               
E06  22671440.855   119139246.887       -1745.290          42.000               
G06  19185433.191   100820148.107        1308.752          48.000               
G09  18492828.647    97180463.658        1531.364          43.000               
G19  20008492.509   105145355.012       -2200.170          45.000               
C19  20059640.420   104455808.194         480.139          45.000               
C29  22392259.362   116602403.868       -3423.111          40.000               
R16  21940497.074   117202272.602       -1789.185          36.000               
R17  21764864.846   116468141.555        4135.051          30.000               
R07  21159218.907   113266917.572       -3946.687          33.000               
E14  16760842.222    88078851.749       -2199.395          42.000               
E36  21683678.857   113948480.388       -1031.678          46.000               
E34  22643165.064   118990641.851        1682.651          39.000               
E11  23148064.859   121643935.091       -2902.761          33.000               
G17  21793013.972   114523051.563       -3188.291          32.000               
G11  22000534.376   115613549.812        3200.598          35.000               
E09  21673301.883   113893962.610        -419.928          46.000               
E05  22974333.923   120730937.295        2242.835          46.000               
> 2026 05 04 17 30 21.9940000  0 32                                             
G01  22546554.868   118482939.559       -3819.738          31.000               
G31  21738569.678   114236925.221       -1986.993          42.000               
G03  19998286.135   105091706.542       -2791.647          45.000               
C12  19661384.935   102381985.217       -1101.901          48.000               
C20  21036508.805   109542616.355       -2119.691          44.000               
C22  22876106.304   119121897.273        2643.836          43.000               
C35  20678056.574   107676087.628        -850.369          44.000               
C31  22173521.283   115463371.153        1897.113          39.000               
C07  37916056.113   197438842.607        -532.636          36.000               
R01  18286595.025    97752318.557        2030.182          50.000               
R08  17698741.198    94775961.451       -1732.106          43.000               
R24  17989978.641    96200516.068        1414.606          46.000               
R23  18870549.081   100944717.906       -3631.480          46.000               
R09  21200245.643   113208115.683        1315.826          36.000               
G04  18535951.598    97407081.026        -727.491          47.000               
E06  22671772.914   119140991.925       -1745.169          40.000               
G06  19185184.125   100818839.282        1308.655          47.000               
G09  18492537.241    97178932.127        1531.695          42.000               
G19  20008911.118   105147555.387       -2200.274          46.000               
C19  20059548.328   104455327.847         480.238          46.000               
C29  22392916.651   116605826.972       -3423.259          37.000               
R16  21940830.825   117204061.388       -1788.989          34.000               
R17  21764091.796   116464006.252        4135.589          34.000               
R07  21159955.844   113270863.741       -3945.693          33.000               
E14  16761260.589    88081051.553       -2200.507          43.000               
E36  21683875.160   113949511.964       -1031.433          46.000               
E34  22642844.452   118988958.919        1682.750          35.000               
E11  23148619.973   121646838.018       -2902.887          32.000               
G17  21793620.831   114526240.317       -3188.789          30.000               
G11  21999925.406   115610349.542        3200.006          31.000               
E09  21673381.648   113894382.675        -420.154          47.000               
E05  22973906.725   120728694.318        2243.177          46.000               
> 2026 05 04 17 30 22.9940000  0 30                                             
G31  21738948.008   114238912.738       -1988.208          40.000               
G03  19998817.401   105094498.895       -2792.858          44.000               
C12  19661596.316   102383087.538       -1103.052          47.000               
C20  21036916.115   109544736.446       -2120.639          45.000               
C22  22875598.632   119119253.656        2643.026          44.000               
C35  20678219.948   107676938.312        -851.264          39.000               
C31  22173157.279   115461474.615        1895.838          42.000               
C07  37916158.422   197439375.972        -533.778          32.000               
R01  18286215.444    97750288.785        2028.804          47.000               
R08  17699064.846    94777694.477       -1734.359          42.000               
R24  17989714.164    96199102.494        1412.136          45.000               
R23  18871228.194   100948350.119       -3632.844          44.000               
R09  21199999.822   113206800.832        1313.238          36.000               
G04  18536090.220    97407808.914        -728.480          46.000               
E06  22672105.019   119142737.461       -1746.291          41.000               
G06  19184935.229   100817531.044        1307.690          46.000               
G09  18492245.919    97177401.157        1530.037          43.000               
G19  20009329.905   105149756.342       -2202.037          47.000               
C19  20059456.138   104454847.956         479.470          46.000               
C29  22393574.136   116609250.256       -3424.157          39.000               
R16  21941165.504   117205851.190       -1790.973          34.000               
R17  21763319.307   116459871.288        4135.005          34.000               
R07  21160692.965   113274809.976       -3946.268          35.000               
E14  16761679.370    88083252.697       -2202.261          43.000               
E36  21684071.157   113950543.985       -1032.689          43.000               
E34  22642524.392   118987276.301        1681.416          37.000               
E11  23149169.588   121649741.385       -2903.236          31.000               
G11  21999316.434   115607149.421        3199.951          36.000               
E09  21673461.811   113894803.187        -421.081          46.000               
E05  22973479.894   120726451.724        2242.091          46.000               
> 2026 05 04 17 30 23.9940000  0 30                                             
G31  21739326.243   114240900.754       -1987.799          42.000               
G03  19999348.731   105097291.230       -2791.842          40.000               
C12  19661808.022   102384189.931       -1101.987          41.000               
C20  21037323.408   109546856.545       -2119.731          42.000               
C22  22875090.786   119116609.945        2643.867          42.000               
C35  20678383.325   107677789.373        -851.280          37.000               
C31  22172793.190   115459578.306        1896.381          37.000               
C07  37916260.878   197439909.321        -533.691          31.000               
R01  18285835.798    97748259.380        2029.177          44.000               
R08  17699388.530    94779427.826       -1733.204          42.000               
R24  17989449.896    96197689.556        1412.995          46.000               
R23  18871907.285   100951982.427       -3632.452          32.000               
R09  21199753.849   113205486.538        1314.344          38.000               
G04  18536228.820    97408537.241        -728.583          40.000               
E06  22672437.251   119144483.045       -1745.381          39.000               
G06  19184686.355   100816223.115        1308.081          48.000               
G09  18491954.495    97175870.671        1527.532          31.000               
G19  20009748.839   105151957.677       -2201.138          44.000               
C19  20059363.916   104454368.273         479.866          43.000               
C29  22394231.618   116612673.653       -3423.510          33.000               
R16  21941500.376   117207641.436       -1791.779          30.000               
R17  21762548.243   116455790.981        4135.695          29.000               
R07  21161431.184   113278797.858       -3946.048          26.000               
E14  16762098.298    88085454.726       -2202.311          43.000               
E36  21684267.250   113951576.258       -1032.157          36.000               
E34  22642205.188   118985593.679        1683.219          42.000               
E11  23149723.787   121652618.590       -2900.716          24.000               
G11  21998707.592   115603949.505        3199.365          29.000               
E09  21673541.869   113895223.938        -420.607          39.000               
E05  22973053.059   120724209.113        2242.933          42.000               
> 2026 05 04 17 30 24.9940000  0 31                                             
G01  22548734.902   118494401.630       -3819.656          29.000               
G31  21739704.718   114242889.318       -1988.751          43.000               
G03  19999880.035   105100083.761       -2792.641          42.000               
C12  19662019.746   102385292.739       -1103.312          45.000               
C20  21037730.703   109548976.822       -2120.444          44.000               
C22  22874583.045   119113966.579        2643.165          39.000               
C35  20678546.978   107678640.986        -851.531          43.000               
C31  22172429.016   115457682.257        1896.704          39.000               
C07  37916363.276   197440442.854        -534.006          31.000               
R01  18285456.180    97746230.438        2028.040          40.000               
R08  17699712.228    94781161.621       -1734.089          44.000               
R24  17989185.823    96196277.306        1411.391          45.000               
R23  18872586.547   100955611.493       -3631.756          36.000               
R09  21199507.880   113204172.988        1313.674          38.000               
G04  18536367.496    97409265.962        -728.978          44.000               
E06  22672769.593   119146228.940       -1745.949          42.000               
G06  19184437.574   100814915.670        1306.885          46.000               
G09  18491663.055    97174344.872        1533.543          28.000               
G19  20010167.943   105154159.668       -2202.852          42.000               
C19  20059271.724   104453888.839         480.169          43.000               
C29  22394889.247   116616097.211       -3422.153          30.000               
R16  21941835.634   117209432.389       -1791.998          31.000               
R17  21761772.687   116451640.925        4135.157          30.000               
R07  21162166.232   113282731.797       -3944.495          26.000               
E14  16762517.968    88087658.222       -2204.027          41.000               
E36  21684462.975   113952608.546       -1032.044          39.000               
E34  22641885.326   118983911.128        1682.309          40.000               
E11  23150276.640   121655524.258       -2903.034          23.000               
G17  21795441.412   114535816.986       -3189.761          31.000               
E09  21673621.848   113895645.041        -421.439          44.000               
E05  22972626.775   120721966.911        2241.953          41.000               
> 2026 05 04 17 30 25.9940000  0 29                                             
G31  21740083.214   114244878.587       -1989.738          40.000               
G03  20000411.400   105102876.606       -2793.222          43.000               
C12  19662231.452   102386395.934       -1103.632          46.000               
C20  21038137.862   109551097.412       -2120.693          42.000               
C22  22874075.409   119111323.272        2643.037          41.000               
C35  20678710.507   107679493.084        -852.531          41.000               
C31  22172065.129   115455786.797        1894.965          43.000               
C07  37916466.545   197440990.822        -534.342          31.000               
R01  18285076.648    97744202.066        2027.955          45.000               
R08  17700036.172    94782896.049       -1734.838          45.000               
R24  17988921.912    96194865.941        1411.113          44.000               
R23  18873265.711   100959245.267       -3634.289          37.000               
R09  21199262.326   113202877.275        1310.969          27.000               
G04  18536506.284    97409995.490        -730.021          45.000               
E06  22673102.202   119147975.299       -1746.460          43.000               
G06  19184188.887   100813608.867        1306.525          46.000               
G09  18491371.668    97172815.368        1529.321          41.000               
G19  20010587.121   105156362.189       -2202.875          41.000               
C19  20059179.794   104453409.863         478.731          44.000               
C29  22395547.457   116619520.915       -3423.807          25.000               
R16  21942170.977   117211224.328       -1791.394          29.000               
R17  21761000.149   116447506.250        4134.797          34.000               
R07  21162902.238   113286671.960       -3946.793          27.000               
E14  16762938.081    88089863.039       -2205.250          41.000               
E36  21684659.844   113953641.489       -1032.936          42.000               
E34  22641564.791   118982229.154        1681.901          35.000               
G17  21796048.307   114539006.398       -3189.292          29.000               
E09  21673702.391   113896066.744        -421.631          46.000               
E05  22972200.801   120719724.976        2241.545          40.000               
> 2026 05 04 17 30 26.9940000  0 30                                             
G31  21740461.883   114246868.401       -1990.056          42.000               
G03  20000942.785   105105669.626       -2792.935          42.000               
C12  19662443.188   102387499.363       -1103.472          45.000               
C20  21038545.179   109553218.209       -2120.684          44.000               
C22  22873568.021   119108680.115        2643.698          42.000               
C35  20678874.388   107680345.820        -853.355          40.000               
C31  22171701.474   115453891.675        1895.026          45.000               
C07  37916569.692   197441527.539        -530.959          25.000               
R01  18284697.236    97742174.190        2027.446          44.000               
R08  17700360.091    94784630.857       -1734.811          45.000               
R24  17988658.131    96193455.325        1410.226          45.000               
R23  18873944.950   100962879.120       -3634.919          35.000               
R09  21199018.103   113201573.080        1311.342          36.000               
G04  18536645.236    97410725.433        -730.110          45.000               
E06  22673434.851   119149721.906       -1746.520          42.000               
G06  19183940.215   100812302.502        1306.042          47.000               
G09  18491080.649    97171286.322        1528.531          39.000               
G19  20011006.316   105158565.230       -2203.305          42.000               
C19  20059087.845   104452931.285         478.085          43.000               
C29  22396205.481   116622944.702       -3423.844          31.000               
R16  21942506.673   117213016.664       -1792.816          33.000               
R17  21760226.910   116443371.154        4134.724          31.000               
R07  21163639.252   113290617.619       -3946.514          26.000               
E14  16763358.140    88092068.926       -2206.490          41.000               
E36  21684856.442   113954674.756       -1033.518          42.000               
E34  22641244.218   118980547.226        1681.525          38.000               
G17  21796655.212   114542195.765       -3189.809          29.000               
G11  21996881.111   115594390.064        3199.744          36.000               
E09  21673782.611   113896488.729        -422.171          45.000               
E05  22971774.560   120717483.293        2241.394          40.000               
> 2026 05 04 17 30 27.9940000  0 31                                             
G01  22550920.665   118505887.072       -3819.993          24.000               
G31  21740840.593   114248859.053       -1990.684          42.000               
G03  20001474.389   105108463.041       -2793.506          42.000               
C12  19662655.016   102388603.331       -1104.104          45.000               
C20  21038952.441   109555339.422       -2121.350          45.000               
C22  22873060.593   119106037.350        2642.417          40.000               
C35  20679038.350   107681199.308        -853.023          39.000               
C31  22171337.944   115451997.263        1894.080          43.000               
C07  37916666.318   197442061.778        -534.954          24.000               
R01  18284318.053    97740147.021        2027.076          43.000               
R08  17700684.101    94786366.378       -1735.948          45.000               
R24  17988394.552    96192045.766        1409.017          42.000               
R23  18874624.130   100966514.160       -3635.431          35.000               
R09  21198773.109   113200261.934        1311.393          34.000               
G04  18536784.296    97411456.205        -731.058          45.000               
E06  22673767.125   119151469.011       -1747.245          43.000               
G06  19183691.838   100810996.876        1305.225          46.000               
G09  18490789.797    97169758.049        1527.943          39.000               
G19  20011425.694   105160769.108       -2203.948          42.000               
C19  20058995.985   104452453.237         477.876          45.000               
C29  22396863.911   116626369.037       -3425.036          32.000               
R16  21942842.443   117214810.101       -1793.793          32.000               
R17  21759453.926   116439237.104        4133.650          30.000               
R07  21164374.322   113294552.422       -3946.358          27.000               
E14  16763778.339    88094276.369       -2208.218          41.000               
E36  21685053.297   113955708.579       -1033.936          42.000               
E34  22640924.178   118978865.819        1681.346          36.000               
G17  21797262.369   114545385.629       -3189.934          28.000               
G11  21996268.580   115591170.974        3198.492          35.000               
E09  21673863.026   113896911.355        -422.841          46.000               
E05  22971347.799   120715242.068        2240.878          40.000               
> 2026 05 04 17 30 28.9940000  0 30                                             
G31  21741219.418   114250850.321       -1991.937          41.000               
G03  20002005.888   105111256.635       -2793.862          43.000               
C12  19662866.987   102389707.670       -1104.622          45.000               
C20  21039360.051   109557460.845       -2121.653          45.000               
C22  22872553.321   119103394.894        2642.239          42.000               
C35  20679202.344   107682053.516        -854.569          38.000               
C31  22170974.197   115450103.397        1893.524          42.000               
C07  37916767.541   197442596.042        -533.957          24.000               
R01  18283939.013    97738120.475        2026.405          44.000               
R08  17701008.337    94788102.397       -1736.239          45.000               
R24  17988131.004    96190637.149        1408.273          41.000               
R23  18875303.660   100970149.811       -3635.785          37.000               
R09  21198525.009   113198951.600        1309.219          34.000               
G04  18536923.495    97412187.528        -731.781          46.000               
E06  22674099.439   119153216.444       -1747.825          43.000               
G06  19183443.540   100809691.902        1304.456          47.000               
G09  18490499.063    97168230.341        1527.295          40.000               
G19  20011845.201   105162973.729       -2205.289          42.000               
C19  20058904.266   104451975.650         477.374          44.000               
C29  22397522.498   116629793.498       -3424.314          34.000               
R16  21943178.345   117216604.213       -1794.336          30.000               
R17  21758682.204   116435103.170        4133.841          32.000               
R07  21165115.598   113298520.520       -3946.460          14.000               
E14  16764197.967    88096485.138       -2209.545          38.000               
E36  21685250.554   113956742.798       -1034.746          44.000               
E34  22640604.049   118977184.781        1680.802          35.000               
G17  21797869.305   114548575.793       -3191.218          28.000               
G11  21995653.878   115587941.123        3198.431          33.000               
E09  21673943.286   113897334.407        -423.267          45.000               
E05  22970921.100   120713001.251        2240.513          40.000               
> 2026 05 04 17 30 29.9940000  0 31                                             
G01  22552375.082   118513529.982       -3820.177          30.000               
G31  21741598.305   114252842.117       -1992.716          35.000               
G03  20002537.516   105114050.467       -2793.989          43.000               
C12  19663079.145   102390812.515       -1104.972          45.000               
C20  21039767.501   109559582.568       -2121.879          42.000               
C22  22872046.167   119100752.903        2641.454          42.000               
C35  20679366.651   107682908.418        -855.360          39.000               
C31  22170610.701   115448210.169        1893.030          42.000               
R01  18283560.219    97736094.790        2025.535          44.000               
R08  17701332.689    94789839.048       -1737.048          45.000               
R24  17987867.661    96189229.624        1407.152          42.000               
R23  18875983.691   100973786.137       -3636.760          40.000               
R09  21198277.023   113197641.861        1309.730          35.000               
G04  18537062.719    97412919.541        -732.247          46.000               
E06  22674432.506   119154964.285       -1748.051          44.000               
G06  19183195.265   100808387.647        1303.748          47.000               
G09  18490208.522    97166703.341        1526.694          42.000               
G19  20012264.882   105165179.170       -2205.871          43.000               
C19  20058812.734   104451498.640         476.730          47.000               
C29  22398180.856   116633218.126       -3424.462          29.000               
R16  21943514.599   117218399.265       -1795.899          36.000               
R17  21757909.707   116430969.673        4133.521          32.000               
R07  21165856.507   113302486.942       -3946.434          36.000               
E14  16764617.808    88098695.561       -2210.555          41.000               
E36  21685448.119   113957777.575       -1035.041          44.000               
E34  22640284.588   118975504.183        1680.775          36.000               
E11  23153047.623   121670085.600       -2904.138          25.000               
G17  21798477.447   114551771.979       -3188.426          27.000               
G11  21995044.920   115584740.703        3198.028          36.000               
E09  21674023.399   113897757.969        -423.785          45.000               
E05  22970494.989   120710760.922        2239.876          40.000               
> 2026 05 04 17 30 30.9940000  0 30                                             
G31  21741977.520   114254834.555       -1992.270          39.000               
G03  20003069.241   105116844.583       -2794.280          44.000               
C12  19663291.046   102391917.657       -1105.416          45.000               
C20  21040174.780   109561704.555       -2121.939          42.000               
C22  22871539.142   119098111.370        2641.278          41.000               
C35  20679531.298   107683764.189        -856.344          40.000               
C31  22170247.296   115446317.748        1892.334          40.000               
R01  18283181.470    97734069.822        2024.495          44.000               
R08  17701657.262    94791576.365       -1737.850          45.000               
R24  17987604.678    96187823.019        1405.662          44.000               
R23  18876663.870   100977423.274       -3639.016          33.000               
R09  21198031.670   113196306.052        1307.543          26.000               
G04  18537202.183    97413652.178        -733.259          46.000               
E06  22674765.233   119156712.448       -1748.152          41.000               
G06  19182947.209   100807084.215        1302.856          47.000               
G09  18489918.125    97165176.694        1524.831          37.000               
G19  20012684.739   105167385.474       -2206.857          44.000               
C19  20058721.076   104451022.164         476.120          45.000               
C29  22398839.450   116636643.435       -3425.935          36.000               
R16  21943851.775   117220117.030       -1795.227          24.000               
R17  21757138.408   116426841.911        4133.719          35.000               
R07  21166589.182   113306408.475       -3946.768          40.000               
E14  16765039.343    88100907.342       -2212.370          42.000               
E36  21685645.081   113958812.700       -1035.037          41.000               
E34  22639964.312   118973824.193        1679.206          36.000               
E11  23153601.472   121672990.079       -2904.140          31.000               
G17  21799084.858   114554963.634       -3190.850          35.000               
G11  21994438.109   115581551.797        3197.625          30.000               
E09  21674104.119   113898182.053        -424.352          43.000               
E05  22970068.209   120708521.073        2239.190          40.000               
> 2026 05 04 17 30 31.9940000  0 31                                             
G01  22553821.064   118521129.444       -3822.034          27.000               
G31  21742356.499   114256854.560       -1988.753          29.000               
G03  20003600.777   105119638.378       -2794.828          39.000               
C12  19663503.280   102393023.038       -1106.101          41.000               
C20  21040582.191   109563826.339       -2121.703          39.000               
C22  22871032.048   119095470.575        2640.623          40.000               
C35  20679696.421   107684620.918        -858.104          41.000               
C31  22169883.942   115444426.306        1891.370          40.000               
C07  37917079.396   197444182.418        -535.306          35.000               
R01  18282802.938    97732045.688        2022.910          41.000               
R08  17701981.774    94793314.115       -1737.668          45.000               
R24  17987341.823    96186417.514        1404.440          46.000               
R23  18877343.880   100981060.858       -3638.350          34.000               
R09  21197788.399   113195006.693        1308.875          37.000               
G04  18537341.711    97414385.282        -733.200          44.000               
E06  22675098.390   119158460.579       -1748.092          42.000               
G06  19182699.212   100805781.549        1302.136          48.000               
G09  18489627.888    97163651.167        1524.318          41.000               
G19  20013104.685   105169592.801       -2208.026          44.000               
C19  20058629.691   104450546.164         475.387          45.000               
C29  22399497.592   116640069.361       -3424.561          27.000               
R16  21944187.944   117221912.873       -1797.591          23.000               
R17  21756362.943   116422709.062        4132.302          35.000               
R07  21167323.163   113310354.353       -3946.010          35.000               
E14  16765460.738    88103120.969       -2213.526          37.000               
E36  21685842.979   113959848.077       -1034.759          41.000               
E34  22639646.074   118972144.743        1678.488          44.000               
E11  23154157.048   121675915.536       -2899.973          24.000               
G11  21993830.115   115578354.576        3197.577          36.000               
E09  21674185.360   113898606.408        -424.360          44.000               
E05  22969641.667   120706281.536        2239.538          41.000               
> 2026 05 04 17 30 32.9940000  0 31                                             
G01  22554550.410   118524961.805       -3817.419          25.000               
G31  21742735.435   114258845.458       -1993.406          33.000               
G03  20004132.317   105122431.623       -2794.787          37.000               
C12  19663715.633   102394128.536       -1105.386          47.000               
C20  21040989.629   109565948.089       -2122.346          43.000               
C22  22870524.967   119092830.545        2640.366          45.000               
C35  20679861.319   107685478.629        -858.296          45.000               
C31  22169520.764   115442535.723        1890.472          39.000               
C07  37917181.410   197444716.915        -533.707          31.000               
R01  18282424.418    97730022.661        2023.506          43.000               
R08  17702306.331    94795052.217       -1738.408          46.000               
R24  17987079.213    96185013.227        1403.835          46.000               
R23  18878024.111   100984698.820       -3638.909          36.000               
R09  21197541.373   113193687.566        1299.124          16.000               
G04  18537481.237    97415118.563        -733.050          44.000               
E06  22675431.016   119160208.409       -1746.569          37.000               
G06  19182451.481   100804479.767        1301.556          44.000               
G09  18489337.795    97162126.042        1523.944          41.000               
G19  20013524.963   105171801.289       -2208.896          48.000               
C19  20058538.512   104450070.835         475.032          47.000               
C29  22400156.405   116643491.837       -3426.393          25.000               
R16  21944527.139   117223724.373       -1798.560          31.000               
R17  21755594.626   116418581.326        4131.876          33.000               
R07  21168059.032   113314277.005       -3945.069          30.000               
E14  16765881.985    88105304.255       -2215.998          40.000               
E36  21686040.277   113960883.800       -1035.487          42.000               
E34  22639326.721   118970466.075        1676.894          35.000               
E11  23154707.357   121678808.271       -2903.570          26.000               
G11  21993222.445   115575163.346        3194.194          21.000               
E09  21674266.013   113899030.805        -424.317          44.000               
E05  22969214.800   120704042.422        2238.952          43.000               
> 2026 05 04 17 30 33.9940000  0 30                                             
G01  22555274.010   118528764.322       -3819.094          30.000               
G31  21743116.362   114260847.228       -1990.027          30.000               
G03  20004663.918   105125224.593       -2793.583          37.000               
C12  19663927.729   102395234.084       -1105.750          47.000               
C20  21041396.935   109568069.627       -2120.008          38.000               
C22  22870018.269   119090191.306        2638.720          46.000               
C35  20680026.122   107686337.142        -859.594          47.000               
C07  37917288.280   197445269.994        -534.439          31.000               
R01  18282046.061    97728000.506        2020.972          46.000               
R08  17702631.000    94796790.729       -1739.638          45.000               
R24  17986816.733    96183609.915        1403.405          46.000               
R23  18878704.431   100988336.982       -3640.328          33.000               
R09  21197297.518   113192385.281        1309.477          29.000               
G04  18537620.801    97415852.227        -733.822          45.000               
E06  22675763.687   119161956.399       -1746.905          40.000               
G06  19182203.965   100803178.830        1300.842          49.000               
G09  18489048.000    97160601.804        1523.140          42.000               
G19  20013945.402   105174010.747       -2209.954          49.000               
C19  20058447.562   104449595.908         474.436          45.000               
C29  22400817.844   116646936.025       -3425.440          35.000               
R16  21944866.928   117225539.939       -1803.070          32.000               
R17  21754823.571   116414449.719        4130.467          35.000               
R07  21168798.435   113318235.164       -3944.050          26.000               
E14  16766303.135    88107521.297       -2218.530          40.000               
E36  21686237.563   113961919.605       -1035.840          42.000               
E34  22639007.825   118968787.850        1678.407          47.000               
E11  23155252.836   121681674.649       -2904.542          30.000               
G11  21992619.012   115571992.465        3197.375          33.000               
E09  21674346.738   113899455.263        -424.643          45.000               
E05  22968788.851   120701803.720        2238.807          45.000               
> 2026 05 04 17 30 34.9940000  0 30                                             
G01  22556004.316   118532602.424       -3821.210          25.000               
G31  21743495.800   114262840.711       -1995.163          37.000               
G03  20005195.483   105128011.033       -2790.589          33.000               
C12  19664140.031   102396339.811       -1105.933          46.000               
C20  21041804.202   109570190.899       -2122.070          43.000               
C22  22869511.526   119087553.019        2637.346          44.000               
C35  20680191.704   107687196.815        -860.449          49.000               
C07  37917389.686   197445804.227        -537.251          34.000               
R01  18281667.797    97725979.481        2021.011          47.000               
R08  17702955.676    94798529.396       -1739.406          44.000               
R24  17986554.661    96182207.916        1401.669          47.000               
R23  18879384.700   100991975.420       -3639.466          46.000               
R09  21197052.184   113191075.831        1307.083          34.000               
G04  18537760.462    97416586.213        -735.287          46.000               
E06  22676096.335   119163704.088       -1748.929          39.000               
G06  19181956.536   100801878.838        1298.669          48.000               
G09  18488758.145    97159077.973        1522.258          48.000               
G19  20014366.138   105176221.547       -2211.814          45.000               
C19  20058356.460   104449121.616         473.047          47.000               
C29  22401470.930   116650337.191       -3427.876          40.000               
R16  21945201.928   117227329.003       -1798.798          33.000               
R17  21754058.054   116410358.652        4133.219          36.000               
R07  21169537.199   113322189.761       -3941.477          35.000               
E14  16766721.401    88109740.436       -2220.021          38.000               
E36  21686434.730   113962955.594       -1036.505          46.000               
E34  22638688.523   118967110.514        1676.572          42.000               
E11  23155809.173   121684598.466       -2904.152          30.000               
G11  21992013.593   115568810.947        3191.873          30.000               
E09  21674427.562   113899879.869        -424.476          46.000               
E05  22968362.552   120699565.587        2239.018          43.000               
> 2026 05 04 17 30 35.9940000  0 30                                             
G31  21743874.968   114264833.615       -1994.054          32.000               
G03  20005726.676   105130802.985       -2792.367          41.000               
C12  19664352.505   102397445.727       -1105.955          49.000               
C20  21042211.432   109572311.995       -2122.651          40.000               
C22  22869005.069   119084915.883        2636.901          44.000               
C35  20680357.182   107688057.599        -861.426          47.000               
C31  22168437.653   115436871.860        1887.121          29.000               
C07  37917492.088   197446330.620        -532.750          30.000               
R01  18281289.745    97723959.562        2019.876          49.000               
R08  17703280.432    94800268.542       -1738.293          43.000               
R24  17986292.827    96180807.221        1400.869          46.000               
R23  18880065.047   100995614.454       -3638.798          45.000               
R09  21196804.678   113189768.557        1306.818          34.000               
G04  18537900.100    97417320.487        -734.096          46.000               
E06  22676429.032   119165451.583       -1747.990          37.000               
G06  19181709.349   100800579.868        1298.499          47.000               
G09  18488468.541    97157555.023        1522.605          47.000               
G19  20014787.056   105178433.699       -2212.851          47.000               
C19  20058265.391   104448647.995         473.059          47.000               
C29  22402125.996   116653762.961       -3426.915          39.000               
R16  21945539.957   117229135.192       -1801.788          38.000               
R17  21753285.116   116406222.541        4130.942          32.000               
R07  21170273.823   113326132.657       -3941.081          32.000               
E14  16767149.794    88111961.285       -2221.413          49.000               
E36  21686631.785   113963991.910       -1036.043          45.000               
E34  22638369.323   118965434.099        1675.314          43.000               
E11  23156358.136   121687482.546       -2902.659          30.000               
G11  21991403.425   115565604.553        3195.294          35.000               
E09  21674508.018   113900304.715        -424.823          45.000               
E05  22967936.499   120697327.998        2236.542          44.000               
> 2026 05 04 17 30 36.9940000  0 29                                             
G01  22557457.161   118540237.342       -3814.237          31.000               
G31  21744257.535   114266843.977       -1992.110          34.000               
G03  20006257.878   105133594.344       -2790.110          42.000               
C12  19664564.779   102398551.612       -1105.996          46.000               
C20  21042618.706   109574432.684       -2120.874          44.000               
C22  22868498.869   119082279.376        2635.434          44.000               
C35  20680522.739   107688919.265        -862.469          48.000               
C31  22168075.757   115434987.261        1886.517          28.000               
R01  18280912.036    97721940.629        2018.347          48.000               
R08  17703605.275    94802008.020       -1738.414          42.000               
R24  17986031.054    96179407.617        1399.426          46.000               
R23  18880745.412   100999253.892       -3639.732          45.000               
R09  21196561.774   113188456.516        1307.378          30.000               
G04  18538039.890    97418055.011        -734.346          45.000               
E06  22676761.139   119167198.997       -1747.800          41.000               
G06  19181462.329   100799281.717        1297.705          45.000               
G09  18488178.897    97156032.527        1522.964          44.000               
G19  20015208.211   105180646.889       -2213.340          47.000               
C19  20058174.727   104448174.789         473.710          48.000               
C29  22402782.929   116657188.775       -3424.853          38.000               
R16  21945872.773   117230912.790       -1798.047          31.000               
R17  21752514.068   116402096.376        4127.192          36.000               
R07  21171011.317   113330080.514       -3946.463          41.000               
E14  16767570.021    88114183.997       -2223.802          46.000               
E36  21686828.660   113965028.322       -1036.965          45.000               
E34  22638050.552   118963758.069        1676.132          44.000               
G11  21990796.808   115562416.684        3194.592          35.000               
E09  21674589.144   113900729.530        -424.396          46.000               
E05  22967510.750   120695090.765        2236.793          46.000               
> 2026 05 04 17 30 37.9940000  0 31                                             
G31  21744636.130   114268833.152       -1990.384          31.000               
G03  20006789.071   105136385.339       -2789.867          40.000               
C12  19664777.242   102399657.512       -1105.515          45.000               
C20  21043025.878   109576553.013       -2120.153          44.000               
C22  22867992.688   119079643.312        2636.603          43.000               
C35  20680688.358   107689781.768        -863.776          45.000               
C31  22167715.827   115433101.853        1884.399          35.000               
C07  37917695.503   197447390.069        -538.093          27.000               
R01  18280534.434    97719922.375        2017.788          47.000               
R08  17703930.135    94803747.722       -1739.686          41.000               
R24  17985769.351    96178009.041        1398.369          46.000               
R23  18881425.965   101002893.622       -3640.135          45.000               
R09  21196318.464   113187157.271        1305.100          36.000               
G04  18538179.681    97418789.684        -734.300          46.000               
E06  22677093.321   119168945.988       -1746.443          38.000               
G06  19181215.436   100797984.231        1297.211          47.000               
G09  18487889.364    97154510.620        1522.871          45.000               
G19  20015629.548   105182860.933       -2213.714          45.000               
C19  20058083.983   104447701.958         473.065          46.000               
C29  22403442.437   116660614.663       -3427.006          38.000               
R16  21946210.485   117232716.551       -1804.364          29.000               
R17  21751742.280   116397966.774        4129.496          33.000               
R07  21171751.854   113334044.516       -3948.961          30.000               
E14  16767994.632    88116408.269       -2224.317          47.000               
E36  21687025.819   113966064.839       -1036.148          46.000               
E34  22637731.853   118962082.788        1673.570          43.000               
E11  23157461.806   121693282.366       -2902.136          31.000               
G17  21803342.463   114577337.194       -3191.285          29.000               
G11  21990190.394   115559230.480        3201.010          31.000               
E09  21674670.157   113901154.466        -425.070          47.000               
E05  22967084.913   120692853.824        2236.775          44.000               
> 2026 05 04 17 30 38.9940000  0 31                                             
G31  21745013.163   114270814.964       -1991.039          31.000               
G03  20007320.201   105139176.558       -2791.088          34.000               
C12  19664989.737   102400763.916       -1107.004          45.000               
C20  21043433.148   109578673.594       -2121.848          40.000               
C22  22867486.723   119077008.241        2634.966          44.000               
C35  20680854.337   107690645.227        -864.407          46.000               
C31  22167351.954   115431218.573        1879.767          31.000               
C07  37917797.943   197447923.900        -534.224          33.000               
R01  18280156.921    97717905.137        2016.844          45.000               
R08  17704255.206    94805488.105       -1740.539          43.000               
R24  17985508.041    96176611.656        1397.648          44.000               
R23  18882106.597   101006534.050       -3641.979          46.000               
R09  21196073.280   113185848.677        1308.561          36.000               
G04  18538319.652    97419525.103        -735.624          45.000               
E06  22677427.130   119170683.430       -1748.415          41.000               
G06  19180968.699   100796687.831        1294.690          46.000               
G09  18487600.095    97152989.639        1520.533          47.000               
G19  20016051.113   105185076.262       -2215.607          47.000               
C19  20057993.351   104447229.953         471.667          48.000               
C29  22404100.399   116664040.821       -3425.361          43.000               
R16  21946546.191   117234509.793       -1796.631          37.000               
R17  21750969.701   116393832.103        4128.363          33.000               
R07  21172484.189   113337964.954       -3943.506          40.000               
E14  16768417.940    88118634.383       -2227.097          45.000               
E36  21687223.272   113967101.869       -1037.472          46.000               
E34  22637412.948   118960408.137        1674.688          41.000               
E11  23158014.082   121696183.515       -2902.370          32.000               
G17  21803944.220   114580499.945       -3193.666          33.000               
G11  21989584.302   115556044.547        3190.722          33.000               
E09  21674751.458   113901579.803        -426.348          47.000               
E05  22966659.622   120690617.473        2237.398          44.000               
> 2026 05 04 17 30 39.9940000  0 30                                             
G31  21745390.341   114272797.344       -1994.130          41.000               
G03  20007851.289   105141967.643       -2791.158          40.000               
C12  19665202.289   102401870.654       -1106.663          46.000               
C20  21043840.654   109580794.490       -2118.645          40.000               
C22  22866980.857   119074373.717        2633.221          42.000               
C35  20681020.199   107691509.548        -864.936          49.000               
C07  37917902.347   197448467.103        -538.391          33.000               
R01  18279779.718    97715888.802        2015.408          48.000               
R08  17704580.367    94807229.096       -1742.614          40.000               
R24  17985246.887    96175215.490        1393.802          35.000               
R23  18882787.210   101010175.020       -3642.195          43.000               
R09  21195826.574   113184530.589        1305.518          35.000               
G04  18538459.691    97420261.071        -736.183          46.000               
E06  22677757.691   119172430.896       -1746.723          39.000               
G06  19180722.167   100795392.119        1295.129          46.000               
G09  18487310.846    97151469.240        1520.510          47.000               
G19  20016472.797   105187292.426       -2216.953          46.000               
C19  20057902.851   104446758.442         470.762          48.000               
C29  22404758.437   116667467.456       -3428.754          40.000               
R16  21946885.173   117236320.810       -1800.926          25.000               
R17  21750199.759   116389711.627        4127.392          31.000               
R07  21173219.136   113341899.607       -3942.048          41.000               
E14  16768841.944    88120862.149       -2228.947          42.000               
E36  21687420.708   113968139.311       -1038.230          46.000               
E34  22637094.363   118958734.200        1673.803          43.000               
E11  23158566.247   121699084.749       -2903.281          31.000               
G17  21804553.995   114583704.524       -3199.910          33.000               
G11  21988976.126   115552848.572        3198.227          30.000               
E09  21674832.299   113902005.548        -426.183          46.000               
E05  22966234.232   120688381.664        2235.934          45.000               
> 2026 05 04 17 30 40.9940000  0 32                                             
G01  22560363.879   118555512.120       -3817.132          30.000               
G31  21745769.295   114274788.211       -1995.200          44.000               
G03  20008383.428   105144763.807       -2789.284          36.000               
C12  19665415.036   102402977.797       -1107.056          49.000               
C20  21044247.983   109582915.550       -2121.277          43.000               
C22  22866475.025   119071739.590        2634.088          43.000               
C35  20681186.491   107692374.635        -865.780          46.000               
C31  22166629.947   115427458.362        1886.224          31.000               
C07  37918000.591   197448978.754        -534.696          35.000               
R01  18279402.487    97713873.131        2015.895          47.000               
R08  17704905.611    94808970.540       -1741.456          41.000               
R24  17984985.887    96173820.153        1394.115          48.000               
R23  18883467.955   101013816.660       -3642.279          46.000               
R09  21195583.760   113183234.111        1307.373          29.000               
G04  18538599.825    97420997.619        -736.594          44.000               
E06  22678090.056   119174179.128       -1748.233          42.000               
G06  19180475.794   100794097.136        1294.989          47.000               
G09  18487021.769    97149949.527        1519.256          44.000               
G19  20016894.676   105189509.423       -2217.436          46.000               
C19  20057812.324   104446287.410         470.446          47.000               
C29  22405416.530   116670894.121       -3427.819          40.000               
R16  21947223.651   117238129.323       -1806.622          27.000               
R17  21749427.628   116385580.474        4128.550          30.000               
R07  21173954.696   113345837.079       -3941.924          42.000               
E14  16769265.852    88123091.205       -2230.140          44.000               
E36  21687618.021   113969177.198       -1038.546          46.000               
E34  22636775.965   118957060.609        1672.714          41.000               
E11  23159120.870   121701986.022       -2901.313          34.000               
G17  21805161.528   114586896.246       -3188.446          33.000               
G11  21988366.385   115549644.888        3191.632          31.000               
E09  21674913.667   113902431.769        -425.861          47.000               
E05  22965808.923   120686146.275        2234.246          43.000               
> 2026 05 04 17 30 41.9940000  0 32                                             
G01  22561088.528   118559320.350       -3818.484          28.000               
G31  21746147.000   114276773.631       -1999.130          42.000               
G03  20008914.629   105147555.190       -2792.290          38.000               
C12  19665627.828   102404085.236       -1107.075          48.000               
C20  21044655.485   109585036.945       -2121.902          46.000               
C22  22865969.325   119069105.950        2633.330          44.000               
C35  20681352.729   107693240.496        -865.630          48.000               
C31  22166269.716   115425582.862        1885.705          30.000               
C07  37918101.884   197449512.585        -534.803          39.000               
R01  18279025.440    97711858.234        2014.895          48.000               
R08  17705231.349    94810709.547       -1741.313          35.000               
R24  17984725.128    96172425.733        1392.981          45.000               
R23  18884148.929   101017458.796       -3642.718          47.000               
R09  21195338.153   113181922.999        1293.947          33.000               
G04  18538740.088    97421734.718        -736.531          45.000               
E06  22678423.353   119175927.449       -1749.181          38.000               
G06  19180229.537   100792802.819        1293.896          47.000               
G09  18486732.777    97148430.447        1519.825          46.000               
G19  20017316.682   105191727.323       -2219.235          45.000               
C19  20057722.017   104445816.884         470.060          47.000               
C29  22406073.368   116674303.098       -3427.192          34.000               
R16  21947562.407   117239938.537       -1804.651          40.000               
R17  21748655.979   116381451.144        4134.500          31.000               
R07  21174690.303   113349774.441       -3943.601          42.000               
E14  16769690.407    88125321.881       -2230.914          39.000               
E36  21687815.542   113970215.358       -1038.498          46.000               
E34  22636457.022   118955387.300        1675.986          36.000               
E11  23159666.173   121704887.426       -2901.241          30.000               
G17  21805772.270   114590106.301       -3197.134          34.000               
G11  21987761.378   115546465.474        3188.112          31.000               
E09  21674994.455   113902858.362        -426.003          46.000               
E05  22965383.330   120683911.261        2234.916          44.000               
> 2026 05 04 17 30 42.9940000  0 30                                             
G31  21746528.988   114278780.465       -1997.336          35.000               
G03  20009445.462   105150346.273       -2791.101          41.000               
C12  19665840.640   102405192.619       -1107.163          47.000               
C20  21045062.896   109587157.788       -2117.124          35.000               
C22  22865463.626   119066472.377        2632.390          44.000               
C35  20681519.242   107694106.893        -867.980          41.000               
C07  37918203.784   197450037.085        -533.136          35.000               
R01  18278648.561    97709843.740        2014.036          45.000               
R08  17705556.241    94812449.671       -1744.294          40.000               
R24  17984464.640    96171032.174        1393.054          48.000               
R23  18884829.897   101021101.251       -3642.604          47.000               
R09  21195093.434   113180616.346        1303.693          36.000               
G04  18538880.382    97422472.080        -737.800          45.000               
E06  22678761.552   119177696.012       -1755.017          26.000               
G06  19179983.399   100791508.957        1293.085          49.000               
G09  18486443.868    97146911.698        1518.580          43.000               
G19  20017738.723   105193945.640       -2219.191          44.000               
C19  20057631.596   104445346.567         470.637          47.000               
C29  22406732.824   116677730.024       -3425.886          34.000               
R16  21947901.703   117241751.139       -1805.951          45.000               
R17  21747884.621   116377323.304        4143.159          30.000               
R07  21175430.523   113353717.160       -3943.256          42.000               
E14  16770114.949    88127553.767       -2232.272          43.000               
E36  21688013.033   113971253.614       -1038.137          46.000               
E34  22636138.839   118953714.289        1672.141          38.000               
E11  23160222.450   121707789.996       -2899.714          31.000               
G17  21806378.583   114593292.416       -3194.909          32.000               
G11  21987155.903   115543283.156        3190.894          31.000               
E09  21675075.684   113903285.021        -426.381          46.000               
E05  22964957.956   120681676.372        2233.523          45.000               
> 2026 05 04 17 30 43.9940000  0 30                                             
G01  22562539.854   118566946.594       -3821.604          30.000               
G03  20009974.828   105153137.538       -2791.583          40.000               
C12  19666053.418   102406300.569       -1108.761          46.000               
C20  21045474.420   109589307.643       -2118.777          35.000               
C22  22864957.792   119063839.392        2632.946          41.000               
C35  20681685.615   107694974.052        -867.577          44.000               
C31  22165546.129   115421815.165        1882.288          30.000               
R01  18278271.749    97707830.139        2013.758          44.000               
R08  17705882.967    94814192.358       -1742.868          38.000               
R24  17984204.219    96169639.640        1393.608          46.000               
R23  18885510.985   101024744.376       -3643.673          46.000               
R09  21194850.596   113179319.606        1304.081          28.000               
G04  18539020.762    97423210.102        -738.395          46.000               
E06  22679090.662   119179425.136       -1748.876          28.000               
G06  19179737.387   100790215.915        1293.103          47.000               
G09  18486155.212    97145393.747        1517.674          46.000               
G19  20018161.124   105196164.931       -2219.438          44.000               
C19  20057541.445   104444876.865         469.508          45.000               
C29  22407391.047   116681157.194       -3425.724          39.000               
R16  21948236.850   117243557.636       -1810.565          38.000               
R17  21747115.699   116373208.909        4129.043          35.000               
R07  21176165.772   113357673.087       -3944.146          34.000               
E14  16770540.251    88129787.360       -2234.613          43.000               
E36  21688210.843   113972292.450       -1038.511          45.000               
E34  22635821.158   118952041.869        1672.296          44.000               
E11  23160772.583   121710680.965       -2903.424          32.000               
G17  21806983.573   114596471.438       -3198.616          36.000               
G11  21986551.882   115540109.519        3192.534          26.000               
E09  21675157.164   113903712.293        -427.502          47.000               
E05  22964532.695   120679441.899        2234.963          45.000               
> 2026 05 04 17 30 44.9940000  0 32                                             
G01  22563267.249   118570769.170       -3823.572          30.000               
G31  21747291.840   114282789.090       -2025.246          30.000               
G03  20010505.795   105155916.889       -2792.785          42.000               
C12  19666266.195   102407408.788       -1106.997          43.000               
C20  21045879.792   109591428.610       -2120.184          41.000               
C22  22864452.255   119061206.881        2632.624          42.000               
C35  20681852.235   107695841.995        -868.707          44.000               
C31  22165183.482   115419926.953        1889.538          34.000               
C07  37918412.609   197451124.685        -532.851          27.000               
R01  18277895.094    97705817.154        2014.061          43.000               
R08  17706207.954    94815935.976       -1742.018          38.000               
R24  17983944.007    96168248.194        1390.190          42.000               
R23  18886192.229   101028387.993       -3644.304          47.000               
R09  21194605.550   113178010.551        1301.385          34.000               
G04  18539161.404    97423948.701        -739.186          44.000               
E06  22679422.725   119181170.673       -1749.067          36.000               
G06  19179491.490   100788923.584        1291.486          44.000               
G09  18485866.534    97143876.401        1516.477          46.000               
G19  20018583.630   105198384.989       -2220.085          44.000               
C19  20057451.150   104444407.537         469.442          46.000               
C29  22408049.263   116684584.718       -3427.606          38.000               
R16  21948574.051   117245342.802       -1807.617          40.000               
R17  21746345.371   116369086.375        4126.713          35.000               
R07  21176905.832   113361634.215       -3944.181          37.000               
E14  16770965.751    88132022.258       -2235.177          44.000               
E36  21688408.494   113973331.584       -1039.194          45.000               
E34  22635502.796   118950370.107        1669.278          40.000               
E11  23161324.313   121713579.867       -2900.457          31.000               
G17  21807592.468   114599668.759       -3197.646          36.000               
G11  21985940.127   115536894.210        3192.163          32.000               
E09  21675238.299   113904139.798        -427.492          46.000               
E05  22964107.477   120677207.832        2234.092          45.000               
> 2026 05 04 17 30 45.9940000  0 32                                             
G01  22563990.287   118574568.485       -3821.221          30.000               
G31  21747672.716   114284791.128       -2003.332          29.000               
G03  20011037.126   105158709.140       -2792.143          41.000               
C12  19666479.088   102408517.256       -1107.887          42.000               
C20  21046287.744   109593550.187       -2119.560          40.000               
C22  22863946.931   119058574.782        2631.714          40.000               
C35  20682019.175   107696710.612        -869.042          47.000               
C31  22164816.645   115418015.983        1876.959          35.000               
C07  37918517.379   197451670.005        -533.063          32.000               
R01  18277518.666    97703805.035        2011.861          43.000               
R08  17706535.208    94817691.891       -1744.238          26.000               
R24  17983684.079    96166857.504        1389.500          46.000               
R23  18886873.534   101032032.170       -3642.973          46.000               
R09  21194363.997   113176720.965        1305.322          39.000               
G04  18539302.028    97424687.701        -739.380          45.000               
E06  22679754.620   119182919.431       -1747.659          35.000               
G06  19179245.660   100787631.886        1292.047          44.000               
G09  18485578.002    97142359.580        1516.163          46.000               
G19  20019006.248   105200605.925       -2220.731          43.000               
C19  20057361.118   104443938.804         468.709          44.000               
C29  22408707.518   116688012.244       -3425.013          34.000               
R16  21948913.672   117247156.617       -1811.561          34.000               
R17  21745572.432   116364949.893        4127.182          31.000               
R07  21177640.727   113365568.732       -3941.594          41.000               
E14  16771391.023    88134258.568       -2236.184          43.000               
E36  21688606.513   113974371.022       -1039.322          46.000               
E34  22635185.141   118948698.282        1672.527          45.000               
E11  23161878.728   121716493.973       -2900.257          32.000               
G17  21808201.055   114602869.339       -3195.703          36.000               
G11  21985331.736   115533697.641        3189.673          36.000               
E09  21675319.824   113904567.717        -427.712          47.000               
E05  22963682.775   120674974.183        2234.409          45.000               
> 2026 05 04 17 30 46.9940000  0 31                                             
G01  22564720.637   118578406.372       -3818.701          26.000               
G31  21748051.717   114286782.934       -1997.846          36.000               
G03  20011568.099   105161500.543       -2791.518          42.000               
C12  19666691.888   102409625.920       -1109.373          41.000               
C20  21046692.257   109595671.645       -2120.298          42.000               
C22  22863441.438   119055942.839        2630.972          39.000               
C35  20682186.147   107697579.802        -868.200          43.000               
C31  22164456.640   115416141.689        1879.010          37.000               
C07  37918623.819   197452223.913        -537.780          28.000               
R01  18277142.342    97701793.234        2012.734          45.000               
R08  17706863.050    94819446.762       -1742.847          28.000               
R24  17983424.107    96165467.547        1387.787          42.000               
R23  18887554.805   101035676.829       -3644.965          45.000               
R09  21194114.834   113175389.976        1303.611          36.000               
G04  18539442.630    97425427.164        -740.027          45.000               
E06  22680089.772   119184668.530       -1749.168          42.000               
G06  19179000.015   100786340.688        1290.057          45.000               
G09  18485289.498    97140843.220        1516.435          46.000               
G19  20019428.929   105202827.387       -2221.502          41.000               
C19  20057271.036   104443470.339         468.078          46.000               
C29  22409365.697   116691439.891       -3423.844          35.000               
R16  21949251.775   117248962.434       -1808.930          34.000               
R17  21744801.189   116360823.067        4127.958          32.000               
R07  21178375.868   113369503.402       -3943.555          38.000               
E14  16771817.133    88136496.297       -2238.153          43.000               
E36  21688804.320   113975410.810       -1039.985          45.000               
E34  22634866.828   118947027.046        1671.791          45.000               
E11  23162429.281   121719395.298       -2901.187          32.000               
G11  21984724.038   115530503.798        3186.517          37.000               
E09  21675401.272   113904995.912        -427.315          46.000               
E05  22963257.620   120672740.738        2233.238          45.000               
> 2026 05 04 17 30 47.9940000  0 32                                             
G01  22565444.755   118582211.731       -3817.633          27.000               
G31  21748429.410   114288767.539       -1998.523          36.000               
G03  20012099.532   105164292.300       -2791.387          39.000               
C12  19666904.750   102410734.896       -1108.562          44.000               
C20  21047100.383   109597793.709       -2122.275          41.000               
C22  22862935.956   119053311.152        2632.124          40.000               
C35  20682353.263   107698449.768        -870.045          44.000               
C31  22164096.445   115414265.709        1879.358          35.000               
C07  37918720.938   197452730.139        -539.968          32.000               
R01  18276766.120    97699782.300        2010.641          46.000               
R08  17707190.750    94821202.114       -1744.904          34.000               
R24  17983164.400    96164078.874        1386.890          39.000               
R23  18888236.377   101039322.224       -3647.620          45.000               
R09  21193871.927   113174087.813        1302.586          38.000               
G04  18539583.455    97426167.250        -740.871          44.000               
E06  22680421.443   119186417.998       -1749.186          42.000               
G06  19178754.389   100785050.200        1289.435          32.000               
G09  18485001.076    97139327.559        1515.688          46.000               
G19  20019851.816   105205049.678       -2222.121          46.000               
C19  20057181.158   104443002.364         467.973          46.000               
C29  22410024.392   116694867.976       -3427.758          39.000               
R16  21949593.573   117250788.498       -1803.479          35.000               
R17  21744031.150   116356702.534        4128.154          38.000               
R07  21179110.228   113373435.129       -3943.509          33.000               
E14  16772243.045    88138735.305       -2239.217          46.000               
E36  21689002.296   113976451.017       -1040.018          47.000               
E34  22634548.306   118945356.146        1671.127          43.000               
E11  23162981.280   121722296.778       -2901.449          32.000               
G17  21809419.538   114609272.369       -3197.014          30.000               
G11  21984117.001   115527314.167        3198.517          26.000               
E09  21675482.806   113905424.586        -428.173          46.000               
E05  22962832.915   120670507.660        2232.666          45.000               
> 2026 05 04 17 30 48.9940000  0 32                                             
G01  22566174.429   118586046.808       -3821.079          26.000               
G31  21748809.039   114290762.487       -2000.773          37.000               
G03  20012632.126   105167084.017       -2792.115          39.000               
C12  19667117.867   102411844.202       -1109.454          45.000               
C20  21047505.538   109599883.614       -2120.086          37.000               
C22  22862430.718   119050679.971        2629.761          39.000               
C35  20682520.308   107699320.163        -869.417          44.000               
C31  22163738.210   115412400.864        1892.951          34.000               
C07  37918822.448   197453258.248        -534.347          38.000               
R01  18276389.974    97697771.738        2009.084          47.000               
R08  17707514.249    94822934.203       -1744.844          42.000               
R24  17982904.813    96162690.703        1392.150          36.000               
R23  18888917.964   101042967.962       -3646.302          45.000               
R09  21193627.374   113172786.134        1300.806          39.000               
G04  18539724.405    97426907.763        -740.871          45.000               
E06  22680753.453   119188167.545       -1748.866          35.000               
G06  19178508.995   100783760.127        1289.105          40.000               
G09  18484712.749    97137812.297        1515.476          48.000               
G19  20020274.815   105207272.472       -2222.799          46.000               
C19  20057091.250   104442534.600         468.562          47.000               
C29  22410682.553   116698304.095       -3427.144          37.000               
R16  21949931.548   117252594.221       -1811.426          47.000               
R17  21743259.808   116352575.300        4126.834          34.000               
R07  21179846.322   113377374.866       -3941.062          41.000               
E14  16772669.680    88140975.648       -2240.871          45.000               
E36  21689200.555   113977491.460       -1040.827          47.000               
E34  22634230.752   118943685.481        1670.488          38.000               
E11  23163536.194   121725198.070       -2900.571          33.000               
G17  21810029.552   114612478.632       -3193.066          36.000               
G11  21983510.649   115524127.826        3187.073          35.000               
E09  21675564.478   113905853.538        -428.859          46.000               
E05  22962408.416   120668274.853        2232.705          45.000               
> 2026 05 04 17 30 49.9940000  0 32                                             
G01  22566901.984   118589869.457       -3822.175          27.000               
G31  21749188.725   114292757.644       -1999.723          39.000               
G03  20013164.375   105169875.792       -2791.697          39.000               
C12  19667330.838   102412953.741       -1108.615          47.000               
C20  21047915.120   109602005.882       -2122.339          41.000               
C22  22861925.468   119048048.656        2630.245          42.000               
C35  20682687.687   107700191.247        -872.272          45.000               
C31  22163378.437   115410527.266        1877.572          30.000               
C07  37918921.836   197453792.377        -533.991          37.000               
R01  18276013.961    97695761.672        2009.713          46.000               
R08  17707836.656    94824679.916       -1745.433          43.000               
R24  17982644.742    96161282.255        1385.076          34.000               
R23  18889599.604   101046614.210       -3646.479          47.000               
R09  21193383.244   113171485.266        1301.157          38.000               
G04  18539865.440    97427648.843        -740.720          42.000               
E06  22681085.960   119189917.488       -1749.039          41.000               
G06  19178263.572   100782470.629        1289.478          43.000               
G09  18484424.546    97136297.632        1514.798          45.000               
G19  20020697.940   105209495.821       -2223.758          44.000               
C19  20057001.433   104442067.322         467.207          45.000               
C29  22411340.692   116701731.372       -3426.746          37.000               
R16  21950268.543   117254393.844       -1817.279          35.000               
R17  21742488.446   116348447.480        4126.962          31.000               
R07  21180581.352   113381316.414       -3942.504          42.000               
E14  16773096.365    88143217.244       -2241.884          45.000               
E36  21689398.245   113978532.170       -1040.446          46.000               
E34  22633912.616   118942014.835        1673.256          28.000               
E11  23164089.223   121728109.547       -2901.787          33.000               
G17  21810639.100   114615681.358       -3186.954          28.000               
G11  21982907.489   115520958.250        3192.822          32.000               
E09  21675646.044   113906282.888        -429.325          46.000               
E05  22961983.260   120666042.266        2232.591          46.000               
> 2026 05 04 17 30 50.9940000  0 32                                             
G01  22567631.243   118593702.188       -3837.375          28.000               
G31  21749568.036   114294757.921       -1999.528          42.000               
G03  20013695.037   105172667.671       -2789.784          36.000               
C12  19667543.938   102414063.573       -1110.146          45.000               
C20  21048323.551   109604128.142       -2120.564          36.000               
C22  22861420.234   119045417.742        2630.891          39.000               
C35  20682854.950   107701062.868        -871.701          46.000               
C31  22163017.092   115408645.803        1876.624          39.000               
C07  37919024.449   197454326.365        -534.064          40.000               
R01  18275638.158    97693752.275        2009.459          46.000               
R08  17708162.306    94826405.000       -1745.531          43.000               
R24  17982386.189    96159899.839        1386.502          48.000               
R23  18890281.313   101050260.999       -3647.437          47.000               
R09  21193138.284   113170175.818        1297.704          37.000               
G04  18540006.522    97428390.424        -742.120          45.000               
E06  22681421.932   119191667.605       -1747.031          38.000               
G06  19178018.323   100781181.594        1287.744          47.000               
G09  18484136.444    97134783.432        1514.245          44.000               
G19  20021121.097   105211719.863       -2224.750          44.000               
C19  20056911.735   104441600.320         466.692          47.000               
C29  22411998.960   116705159.813       -3430.206          40.000               
R16  21950605.046   117256205.616       -1813.001          39.000               
R17  21741716.247   116344314.914        4125.732          30.000               
R07  21181319.475   113385260.644       -3942.287          43.000               
E14  16773523.152    88145460.182       -2243.412          44.000               
E36  21689596.773   113979573.243       -1041.554          47.000               
E34  22633598.433   118940362.162        1671.202          33.000               
E11  23164640.108   121731010.927       -2900.889          33.000               
G17  21811249.978   114618891.306       -3198.376          30.000               
G11  21982300.992   115517770.836        3191.169          29.000               
E09  21675727.794   113906712.554        -429.907          47.000               
E05  22961558.480   120663810.021        2231.707          44.000               
> 2026 05 04 17 30 51.9940000  0 32                                             
G01  22568359.293   118597528.410       -3824.706          28.000               
G31  21749950.643   114296761.420       -2001.592          41.000               
G03  20014226.401   105175468.902       -2792.560          40.000               
C12  19667757.058   102415173.694       -1109.727          45.000               
C20  21048733.854   109606280.324       -2124.707          39.000               
C22  22860915.038   119042786.980        2631.051          40.000               
C35  20683022.550   107701935.032        -872.212          45.000               
C31  22162656.976   115406770.109        1876.972          37.000               
C07  37919127.321   197454860.750        -535.461          42.000               
R01  18275262.274    97691743.355        2008.187          45.000               
R08  17708489.480    94828151.637       -1747.712          42.000               
R24  17982127.059    96158514.156        1385.597          48.000               
R23  18890963.136   101053908.341       -3647.949          45.000               
R09  21192897.084   113168887.258        1298.269          34.000               
G04  18540147.742    97429132.513        -741.555          45.000               
E06  22681754.719   119193418.072       -1749.339          40.000               
G06  19177773.190   100779893.170        1287.872          48.000               
G09  18483848.400    97133269.922        1513.175          43.000               
G19  20021544.505   105213944.581       -2225.344          45.000               
C19  20056822.200   104441133.776         466.023          47.000               
C29  22412657.201   116708588.304       -3428.185          43.000               
R16  21950944.595   117258005.448       -1807.959          38.000               
R17  21740946.171   116340194.569        4124.781          36.000               
R07  21182056.948   113389201.925       -3940.700          38.000               
E14  16773950.342    88147704.410       -2244.906          43.000               
E36  21689794.724   113980614.694       -1041.085          46.000               
E34  22633276.186   118938668.942        1670.607          43.000               
E11  23165191.041   121733900.089       -2901.533          29.000               
G17  21811858.639   114622090.111       -3199.388          32.000               
G11  21981690.874   115514564.501        3186.578          38.000               
E09  21675810.017   113907142.655        -430.431          47.000               
E05  22961133.796   120661578.030        2231.897          43.000               
> 2026 05 04 17 30 52.9940000  0 32                                             
G01  22569081.808   118601325.167       -3819.037          28.000               
G31  21750330.835   114298759.898       -2008.331          30.000               
G03  20014756.819   105178256.164       -2798.096          39.000               
C12  19667970.269   102416284.325       -1110.884          45.000               
C20  21049137.703   109608383.636       -2121.658          31.000               
C22  22860409.856   119040156.609        2630.485          40.000               
C35  20683190.193   107702807.988        -873.075          45.000               
C31  22162294.915   115404893.542        1876.996          41.000               
C07  37919230.768   197455395.303        -533.637          39.000               
R01  18274886.611    97689735.212        2007.611          45.000               
R08  17708814.478    94829898.344       -1747.661          39.000               
R24  17981867.405    96157129.566        1383.555          48.000               
R23  18891644.991   101057556.264       -3648.181          43.000               
R09  21192654.854   113167594.181        1297.539          29.000               
G04  18540289.050    97429875.279        -742.665          44.000               
E06  22682087.684   119195168.657       -1750.670          38.000               
G06  19177528.131   100778605.454        1287.329          46.000               
G09  18483560.385    97131756.902        1513.250          43.000               
G19  20021967.972   105216169.971       -2226.161          46.000               
C19  20056732.663   104440667.653         465.845          47.000               
C29  22413315.472   116712017.161       -3428.048          42.000               
R16  21951281.170   117259803.824       -1812.897          44.000               
R17  21740176.856   116336077.491        4119.417          35.000               
R07  21182794.015   113393154.852       -3943.545          25.000               
E14  16774377.413    88149950.046       -2245.881          45.000               
E36  21689992.905   113981656.553       -1041.429          45.000               
E34  22632958.225   118936999.546        1669.975          45.000               
E11  23165745.480   121736813.374       -2903.227          33.000               
G17  21812463.093   114625267.124       -3199.844          39.000               
G11  21981081.748   115511377.347        3186.340          39.000               
E09  21675891.826   113907573.174        -430.248          46.000               
E05  22960709.283   120659346.460        2231.615          46.000               
> 2026 05 04 17 30 53.9940000  0 32                                             
G01  22569810.711   118605155.194       -3827.216          28.000               
G31  21750709.529   114300749.727       -2005.609          30.000               
G03  20015287.536   105181045.503       -2795.010          45.000               
C12  19668183.547   102417395.274       -1112.008          46.000               
C20  21049547.917   109610519.769       -2121.767          34.000               
C22  22859904.827   119037526.650        2627.960          39.000               
C35  20683358.017   107703681.620        -874.632          46.000               
C31  22161934.135   115403017.423        1876.135          42.000               
C07  37919334.608   197455925.582        -535.488          34.000               
R01  18274510.995    97687727.535        2008.472          46.000               
R08  17709141.820    94831645.941       -1746.160          40.000               
R24  17981607.995    96155745.702        1383.515          47.000               
R23  18892327.008   101061204.766       -3648.835          45.000               
R09  21192411.203   113166292.568        1296.836          35.000               
G04  18540430.589    97430618.685        -744.344          45.000               
E06  22682420.966   119196919.821       -1752.062          40.000               
G06  19177283.170   100777318.308        1286.182          45.000               
G09  18483272.620    97130244.483        1511.942          46.000               
G19  20022391.505   105218396.012       -2226.890          43.000               
C19  20056643.305   104440201.991         465.115          47.000               
C29  22413973.876   116715446.180       -3429.460          43.000               
R16  21951624.836   117261639.541       -1805.329          37.000               
R17  21739410.108   116331973.914        4121.350          27.000               
R07  21183532.553   113397107.663       -3937.451          29.000               
E14  16774805.372    88152197.008       -2247.556          45.000               
E36  21690191.175   113982698.764       -1042.169          45.000               
E34  22632643.937   118935330.472        1668.699          46.000               
E11  23166297.497   121739714.286       -2903.112          29.000               
G17  21813071.739   114628467.364       -3200.033          38.000               
G11  21980477.246   115508190.535        3186.108          41.000               
E09  21675973.179   113908004.171        -430.046          39.000               
E05  22960284.457   120657115.188        2231.458          43.000               
> 2026 05 04 17 30 54.9940000  0 30                                             
G01  22570536.261   118608968.000       -3830.568          28.000               
G03  20015820.878   105183838.484       -2793.185          41.000               
C12  19668397.088   102418506.293       -1110.123          39.000               
C20  21049955.052   109612639.799       -2126.543          34.000               
C22  22859399.678   119034896.620        2628.405          43.000               
C35  20683525.968   107704555.732        -874.594          46.000               
C31  22161573.040   115401125.752        1875.171          40.000               
C07  37919436.443   197456455.347        -545.244          30.000               
R01  18274135.594    97685720.455        2006.963          48.000               
R08  17709468.751    94833394.116       -1750.035          35.000               
R24  17981348.092    96154362.690        1383.649          42.000               
R23  18893009.072   101064853.761       -3649.323          39.000               
R09  21192168.920   113164998.851        1294.621          34.000               
G04  18540572.133    97431362.462        -744.074          42.000               
E06  22682754.175   119198671.234       -1752.278          39.000               
G06  19177038.426   100776031.724        1285.217          46.000               
G09  18482984.932    97128732.592        1510.870          45.000               
G19  20022815.240   105220622.558       -2226.709          45.000               
C19  20056553.978   104439736.641         464.987          48.000               
C29  22414632.372   116718875.383       -3429.191          41.000               
R16  21951962.592   117263443.114       -1813.318          39.000               
R17  21738636.509   116327834.699        4125.764          35.000               
R07  21184264.705   113401027.204       -3945.060          33.000               
E14  16775233.039    88154445.282       -2248.813          45.000               
E36  21690390.065   113983741.350       -1043.308          44.000               
E34  22632325.110   118933661.663        1667.723          46.000               
G17  21813679.313   114631667.866       -3200.237          47.000               
G11  21979869.498   115504993.658        3187.347          40.000               
E09  21676055.444   113908435.539        -431.955          42.000               
E05  22959859.625   120654884.242        2230.522          43.000               
> 2026 05 04 17 30 55.9940000  0 30                                             
G31  21751477.904   114304786.916       -2005.889          30.000               
G03  20016351.860   105186631.410       -2794.278          45.000               
C12  19668610.457   102419617.847       -1111.227          44.000               
C20  21050362.890   109614762.608       -2124.003          44.000               
C22  22858894.634   119032267.079        2627.661          40.000               
C35  20683693.942   107705430.429        -874.710          45.000               
C31  22161213.967   115399250.574        1874.945          43.000               
C07  37919540.667   197456998.836        -537.912          34.000               
R01  18273760.345    97683714.021        2006.759          45.000               
R08  17709794.982    94835142.935       -1748.336          39.000               
R24  17981092.640    96152982.703        1382.334          34.000               
R23  18893691.594   101068509.615       -3651.959          36.000               
R09  21191927.335   113163709.447        1284.759          31.000               
G04  18540713.827    97432106.831        -744.041          44.000               
E06  22683086.736   119200422.670       -1750.872          42.000               
G06  19176793.850   100774745.819        1284.949          41.000               
G09  18482697.404    97127221.334        1510.520          45.000               
G19  20023239.238   105222850.005       -2228.618          46.000               
C19  20056464.740   104439271.798         464.759          45.000               
C29  22415290.872   116722304.622       -3426.760          41.000               
R16  21952303.369   117265263.752       -1817.559          32.000               
R17  21737861.337   116323686.041        4126.623          35.000               
R07  21184998.146   113404953.395       -3940.972          36.000               
E14  16775660.836    88156694.914       -2250.783          42.000               
E36  21690588.366   113984784.317       -1044.485          39.000               
E34  22632004.213   118931993.366        1666.519          39.000               
G17  21814287.746   114634868.491       -3200.741          42.000               
G11  21979263.125   115501807.559        3185.144          44.000               
E09  21676137.724   113908867.285        -432.039          44.000               
E05  22959435.309   120652653.685        2230.712          42.000               
> 2026 05 04 17 30 56.9940000  0 31                                             
G31  21751856.685   114306778.028       -2014.704          28.000               
G03  20016880.800   105189424.181       -2791.712          40.000               
C12  19668823.821   102420729.479       -1112.062          47.000               
C20  21050769.290   109616886.006       -2124.263          45.000               
C22  22858389.784   119029637.577        2628.771          41.000               
C35  20683862.206   107706305.754        -876.064          46.000               
C31  22160854.882   115397386.634        1874.024          37.000               
R01  18273385.039    97681708.135        2004.609          48.000               
R08  17710121.467    94836891.873       -1748.004          42.000               
R24  17980838.996    96151626.534        1379.356          38.000               
R23  18894375.738   101072169.219       -3649.695          38.000               
R09  21191684.676   113162413.515        1295.272          34.000               
G04  18540855.665    97432851.749        -745.586          47.000               
E06  22683419.824   119202174.425       -1750.777          41.000               
G06  19176549.194   100773460.290        1284.656          45.000               
G09  18482409.798    97125710.414        1511.948          43.000               
G19  20023663.275   105225077.859       -2228.102          47.000               
C19  20056375.518   104438807.214         463.690          47.000               
C29  22415949.634   116725734.284       -3428.619          43.000               
R16  21952641.937   117267071.987       -1822.028          32.000               
R02  22313993.827   119071746.649        3609.145          29.000               
R17  21737090.625   116319562.177        4122.578          38.000               
R07  21185739.512   113408922.020       -3937.708          29.000               
E14  16776089.148    88158945.683       -2251.198          44.000               
E36  21690787.063   113985827.537       -1043.742          43.000               
E34  22631689.945   118930332.401        1670.400          27.000               
E11  23167953.685   121748417.914       -2901.773          28.000               
G17  21814897.054   114638069.522       -3201.181          43.000               
G11  21978656.252   115498617.959        3188.031          36.000               
E09  21676219.951   113909299.409        -432.079          45.000               
E05  22959010.660   120650423.321        2230.014          42.000               
> 2026 05 04 17 30 57.9940000  0 31                                             
G01  22572712.345   118620403.657       -3811.200          29.000               
G03  20017412.831   105192217.324       -2792.791          41.000               
C12  19669037.402   102421841.628       -1113.306          45.000               
C20  21051177.369   109619009.649       -2121.803          41.000               
C22  22857884.802   119027008.368        2628.436          42.000               
C35  20684030.414   107707181.678        -875.786          41.000               
C31  22160494.224   115395507.902        1881.077          31.000               
R01  18273009.980    97679702.713        2005.304          45.000               
R08  17710448.259    94838641.565       -1750.499          43.000               
R24  17980576.973    96150224.619        1377.813          40.000               
R23  18895058.865   101075823.384       -3649.847          35.000               
R09  21191444.960   113161133.566        1282.546          29.000               
G04  18540997.560    97433597.238        -745.676          46.000               
E06  22683753.114   119203926.659       -1751.700          43.000               
G06  19176304.547   100772175.420        1284.210          45.000               
G09  18482122.298    97124200.284        1509.894          40.000               
G19  20024087.284   105227306.456       -2229.504          46.000               
C19  20056286.487   104438343.068         464.397          44.000               
C29  22416608.167   116729164.053       -3432.574          37.000               
R16  21952984.128   117268899.918       -1828.217          35.000               
R02  22313317.864   119068139.189        3608.327          27.000               
R17  21736319.417   116315438.750        4123.501          44.000               
R07  21186478.744   113412878.721       -3934.912          33.000               
E14  16776517.824    88161197.829       -2252.864          45.000               
E36  21690985.991   113986871.230       -1044.688          41.000               
E34  22631380.576   118928707.279        1669.409          31.000               
E11  23168506.770   121751324.300       -2904.248          28.000               
G17  21815506.129   114641270.721       -3202.753          41.000               
G11  21978050.369   115495434.098        3184.955          37.000               
E09  21676302.907   113909731.995        -433.250          46.000               
E05  22958586.396   120648193.181        2230.995          42.000               
> 2026 05 04 17 30 58.9940000  0 33                                             
G01  22573441.326   118624233.956       -3826.441          29.000               
G31  21752620.794   114310793.143       -2010.369          29.000               
G03  20017944.312   105195010.643       -2794.000          40.000               
C12  19669251.170   102422954.107       -1113.612          46.000               
C20  21051585.281   109621133.685       -2124.522          45.000               
C22  22857379.915   119024379.675        2628.718          43.000               
C35  20684198.695   107708058.418        -876.627          44.000               
C31  22160133.258   115393628.508        1880.427          31.000               
C07  37919848.416   197458600.866        -530.935          26.000               
R01  18272635.090    97677698.174        2004.170          47.000               
R08  17710775.057    94840391.818       -1750.157          45.000               
R24  17980317.268    96148844.914        1379.194          44.000               
R23  18895740.948   101079471.706       -3650.061          41.000               
R09  21191206.099   113159858.255        1295.187          30.000               
G04  18541139.628    97434343.358        -746.997          46.000               
E06  22684086.472   119205679.300       -1752.245          43.000               
G06  19176060.121   100770891.077        1284.039          46.000               
G09  18481835.085    97122690.661        1509.765          44.000               
G19  20024511.451   105229535.821       -2229.496          46.000               
C19  20056197.424   104437879.484         463.039          46.000               
C29  22417266.849   116732594.036       -3430.616          42.000               
R16  21953326.063   117270726.457       -1819.054          29.000               
R02  22312642.959   119064537.917        3606.728          27.000               
R17  21735548.435   116311310.031        4122.315          40.000               
R07  21187213.899   113416813.933       -3939.809          33.000               
E14  16776946.515    88163451.532       -2254.213          44.000               
E36  21691184.540   113987915.260       -1044.293          40.000               
E34  22631056.186   118927002.746        1674.343          33.000               
E11  23169055.222   121754206.784       -2903.523          32.000               
G17  21816115.147   114644472.337       -3201.675          43.000               
G11  21977444.861   115492248.784        3186.444          36.000               
E09  21676385.356   113910164.994        -433.049          46.000               
E05  22958162.610   120645963.654        2229.131          42.000               
> 2026 05 04 17 30 59.9940000  0 32                                             
G31  21753003.949   114312806.549       -2005.292          36.000               
G03  20018475.981   105197804.329       -2794.354          42.000               
C12  19669464.833   102424066.998       -1112.772          46.000               
C20  21051992.716   109623257.889       -2125.464          39.000               
C22  22856874.947   119021751.191        2628.273          43.000               
C35  20684367.117   107708935.837        -877.960          45.000               
C31  22159777.244   115391774.288        1877.856          32.000               
C07  37919951.803   197459139.123        -547.348          26.000               
R01  18272260.206    97675694.234        2002.990          46.000               
R08  17711101.973    94842142.704       -1753.124          43.000               
R24  17980059.807    96147466.386        1378.599          47.000               
R23  18896422.029   101083123.731       -3652.125          41.000               
R09  21190962.546   113158556.931        1296.641          29.000               
G04  18541281.659    97435090.143        -748.052          47.000               
E06  22684419.631   119207432.109       -1753.177          44.000               
G06  19175815.864   100769607.523        1282.721          45.000               
G09  18481548.001    97121181.868        1507.304          40.000               
G19  20024935.825   105231765.875       -2230.420          46.000               
C19  20056108.400   104437416.265         463.304          46.000               
C29  22417925.580   116736024.297       -3430.646          40.000               
R16  21953667.614   117272551.067       -1819.739          39.000               
R02  22311964.368   119060916.798        3606.098          31.000               
R17  21734777.147   116307187.473        4121.684          43.000               
R07  21187948.718   113420748.259       -3941.509          30.000               
E14  16777375.923    88165706.578       -2255.575          44.000               
E36  21691382.963   113988959.807       -1045.128          40.000               
E34  22630734.167   118925310.397        1665.533          41.000               
E11  23169609.488   121757118.670       -2904.618          27.000               
G17  21816724.572   114647674.327       -3202.677          40.000               
G11  21976838.658   115489063.707        3185.980          40.000               
E09  21676467.932   113910598.554        -433.882          46.000               
E05  22957738.354   120643734.425        2228.819          43.000
